{"version":1,"generated_at":"2026-03-19T20:18:47.651686+00:00","operator":"xt","timezone":"Europe/Stockholm","parents":[{"stop_id":"9021021482187000","name":"Abraham Bäckgatan","lat":61.297255,"lon":17.062456,"lines":["2"],"children":["9022021482187001","9022021482187002"]},{"stop_id":"9021021432063000","name":"Abrams stuga","lat":62.04903,"lon":17.160854,"lines":["33"],"children":["9022021432063001","9022021432063002"]},{"stop_id":"9021021401029000","name":"Affären","lat":60.93037,"lon":16.695352,"lines":["Kuxa 74"],"children":["9022021401029001","9022021401029002"]},{"stop_id":"9021021481001000","name":"Agavägen","lat":60.611783,"lon":16.763815,"lines":["2","4","43"],"children":["9022021481001001","9022021481001002"]},{"stop_id":"9021021480642000","name":"Akrobaten","lat":60.661672,"lon":17.180832,"lines":["12"],"children":["9022021480642001","9022021480642002"]},{"stop_id":"9021021482257000","name":"Alagården","lat":61.217727,"lon":17.146686,"lines":["60","63"],"children":["9022021482257001","9022021482257002"]},{"stop_id":"9021021482107000","name":"Albertina","lat":61.377279,"lon":17.101264,"lines":["65"],"children":["9022021482107001","9022021482107002"]},{"stop_id":"9021021481002000","name":"Alderhulten","lat":60.374827,"lon":16.761386,"lines":["47"],"children":["9022021481002001","9022021481002002"]},{"stop_id":"9021021482108000","name":"Ale","lat":61.369668,"lon":16.954459,"lines":["65"],"children":["9022021482108001","9022021482108002"]},{"stop_id":"9021021421045000","name":"Alfta Hemköp","lat":61.345445,"lon":16.054751,"lines":["80","100","172"],"children":["9022021421045001","9022021421045002"]},{"stop_id":"9021021421062000","name":"Alfta Kyrka","lat":61.346668,"lon":16.07225,"lines":["80","100","172"],"children":["9022021421062001","9022021421062002"]},{"stop_id":"9021021421039000","name":"Alfta centrum","lat":61.344622,"lon":16.063003,"lines":["80","100","172"],"children":["9022021421039001","9022021421039002"]},{"stop_id":"9021021421038000","name":"Alfta industricenter","lat":61.348333,"lon":16.087644,"lines":["80","100"],"children":["9022021421038001","9022021421038002"]},{"stop_id":"9021021432139000","name":"Allmänningen","lat":62.084942,"lon":16.797147,"lines":["34"],"children":["9022021432139001","9022021432139002"]},{"stop_id":"9021021483213000","name":"Allén","lat":61.22848,"lon":16.559678,"lines":["75"],"children":["9022021483213001","9022021483213002"]},{"stop_id":"9021021482259000","name":"Alméns","lat":61.263997,"lon":17.152777,"lines":["63"],"children":["9022021482259001","9022021482259002"]},{"stop_id":"9021021481003000","name":"Alsjövallen","lat":60.637765,"lon":16.560619,"lines":["42"],"children":["9022021481003001","9022021481003002"]},{"stop_id":"9021021482110000","name":"Altorp","lat":61.359745,"lon":16.977297,"lines":["67"],"children":["9022021482110001","9022021482110002"]},{"stop_id":"9021021480084000","name":"Aludden","lat":60.707266,"lon":17.243735,"lines":["95","195"],"children":["9022021480084001","9022021480084002"]},{"stop_id":"9021021401039000","name":"Alvägen","lat":60.897232,"lon":16.736987,"lines":["775"],"children":["9022021401039002"]},{"stop_id":"9021021461143000","name":"Anders-Nils","lat":61.665087,"lon":16.153383,"lines":["57"],"children":["9022021461143001","9022021461143002"]},{"stop_id":"9021021480086000","name":"Andersberg centrum","lat":60.651304,"lon":17.137404,"lines":["2","4"],"children":["9022021480086001","9022021480086002"]},{"stop_id":"9021021484378000","name":"Andtjärnsvägen","lat":61.702577,"lon":17.093955,"lines":["4"],"children":["9022021484378001","9022021484378002"]},{"stop_id":"9021021482001000","name":"Anneberg","lat":61.286436,"lon":16.963914,"lines":["100","172"],"children":["9022021482001001","9022021482001002"]},{"stop_id":"9021021482237000","name":"Aquarena","lat":61.288919,"lon":17.070872,"lines":["2"],"children":["9022021482237004"]},{"stop_id":"9021021483056000","name":"Arbrå hälsocentral","lat":61.469958,"lon":16.374601,"lines":["52"],"children":["9022021483056001","9022021483056002"]},{"stop_id":"9021021483044000","name":"Arbrå kyrka","lat":61.490753,"lon":16.374116,"lines":["22","51","55"],"children":["9022021483044001","9022021483044002"]},{"stop_id":"9021021483045000","name":"Arbrå skola","lat":61.479641,"lon":16.376691,"lines":["22","51","52","55"],"children":["9022021483045001","9022021483045002","9022021483045003"]},{"stop_id":"9021021483043000","name":"Arbrå station","lat":61.470754,"lon":16.37953,"lines":["22","51","52","55","173","300","SJ-Tåg","X-tåg"],"children":["9022021483043001","9022021483043002","9022021483043017"]},{"stop_id":"9021021480087000","name":"Arentvägen","lat":60.721995,"lon":17.170747,"lines":["3"],"children":["9022021480087001","9022021480087002"]},{"stop_id":"9021021482111000","name":"Arklo","lat":61.359975,"lon":16.993159,"lines":["65"],"children":["9022021482111001","9022021482111002"]},{"stop_id":"9021021480088000","name":"Arla","lat":60.727893,"lon":17.277611,"lines":["95","195"],"children":["9022021480088001","9022021480088002"]},{"stop_id":"9021021484183000","name":"Arnögården","lat":61.700781,"lon":17.387287,"lines":["37"],"children":["9022021484183001","9022021484183002"]},{"stop_id":"9021021484184000","name":"Arnöviken","lat":61.696542,"lon":17.385993,"lines":["37"],"children":["9022021484184001","9022021484184002"]},{"stop_id":"9021021483142000","name":"Aseavägen","lat":61.34341,"lon":16.384731,"lines":["3","75"],"children":["9022021483142001","9022021483142002"]},{"stop_id":"9021021480648000","name":"Asfaltverket","lat":60.608225,"lon":17.120456,"lines":["49"],"children":["9022021480648001","9022021480648002"]},{"stop_id":"9021021482002000","name":"Askers","lat":61.211212,"lon":17.091051,"lines":["61","68"],"children":["9022021482002001","9022021482002002"]},{"stop_id":"9021021482003000","name":"Askesta","lat":61.247828,"lon":16.996846,"lines":["61","68"],"children":["9022021482003001"]},{"stop_id":"9021021483383000","name":"Asplunds","lat":61.574808,"lon":16.56494,"lines":["22"],"children":["9022021483383001","9022021483383002"]},{"stop_id":"9021021482004000","name":"Asta","lat":61.272916,"lon":16.993452,"lines":["61","68"],"children":["9022021482004001","9022021482004002"]},{"stop_id":"9021021480476000","name":"Atlasgatan","lat":60.670648,"lon":17.180886,"lines":["1","12","14"],"children":["9022021480476001","9022021480476002"]},{"stop_id":"9021021481238000","name":"BJ-Arena","lat":60.610267,"lon":16.748469,"lines":["43"],"children":["9022021481238001"]},{"stop_id":"9021021580203000","name":"Backa Toftbyn","lat":60.711855,"lon":15.773988,"lines":["39"],"children":["9022021580203001","9022021580203002"]},{"stop_id":"9021021580202000","name":"Backabro Toftbyn","lat":60.710623,"lon":15.768037,"lines":["39"],"children":["9022021580202001","9022021580202002"]},{"stop_id":"9021021481004000","name":"Backabron","lat":60.66097,"lon":16.710685,"lines":["43"],"children":["9022021481004001","9022021481004002"]},{"stop_id":"9021021484374000","name":"Backen","lat":61.698074,"lon":17.112649,"lines":["4","38"],"children":["9022021484374001","9022021484374002"]},{"stop_id":"9021021484107000","name":"Backmo","lat":61.816254,"lon":16.79155,"lines":["20"],"children":["9022021484107001","9022021484107002"]},{"stop_id":"9021021483115000","name":"Backsveden","lat":61.361637,"lon":16.425299,"lines":["2"],"children":["9022021483115002"]},{"stop_id":"9021021483085000","name":"Backåkers","lat":61.317579,"lon":16.235465,"lines":["76"],"children":["9022021483085001","9022021483085002"]},{"stop_id":"9021021480536000","name":"Baggbo","lat":60.341306,"lon":16.965387,"lines":["48","49"],"children":["9022021480536001","9022021480536002"]},{"stop_id":"9021021482188000","name":"Balder","lat":61.303857,"lon":17.105682,"lines":["1"],"children":["9022021482188001","9022021482188002"]},{"stop_id":"9021021484091000","name":"Baldra","lat":61.771389,"lon":17.024687,"lines":["20"],"children":["9022021484091001","9022021484091002"]},{"stop_id":"9021021481325000","name":"Ballsta bro","lat":60.501154,"lon":16.745665,"lines":["47"],"children":["9022021481325001","9022021481325002"]},{"stop_id":"9021021580023000","name":"Balungstrand","lat":60.888421,"lon":15.749794,"lines":["39"],"children":["9022021580023001","9022021580023002"]},{"stop_id":"9021021404003000","name":"Barkhyttan","lat":60.564235,"lon":16.383103,"lines":["141"],"children":["9022021404003001","9022021404003002"]},{"stop_id":"9021021481007000","name":"Bastfallet","lat":60.398831,"lon":16.712093,"lines":["47"],"children":["9022021481007001","9022021481007002"]},{"stop_id":"9021021432058000","name":"Baståsen","lat":62.036686,"lon":17.102344,"lines":["33"],"children":["9022021432058001","9022021432058002"]},{"stop_id":"9021021480090000","name":"Basvägen","lat":60.672613,"lon":17.063014,"lines":["4","99"],"children":["9022021480090001","9022021480090002"]},{"stop_id":"9021021480091000","name":"Beckasinvägen","lat":60.682179,"lon":17.1529,"lines":["11"],"children":["9022021480091001","9022021480091002"]},{"stop_id":"9021021404004000","name":"Berg","lat":60.51457,"lon":16.449378,"lines":["46"],"children":["9022021404004001","9022021404004002"]},{"stop_id":"9021021480007000","name":"Berg","lat":60.402712,"lon":17.018718,"lines":["49"],"children":["9022021480007001","9022021480007002"]},{"stop_id":"9021021481270000","name":"Berga","lat":60.506255,"lon":16.815413,"lines":["47"],"children":["9022021481270001"]},{"stop_id":"9021021482112000","name":"Berga","lat":61.370388,"lon":16.898586,"lines":["65","67"],"children":["9022021482112001","9022021482112002"]},{"stop_id":"9021021483284000","name":"Berga","lat":61.349727,"lon":16.619683,"lines":["100","172"],"children":["9022021483284001","9022021483284002"]},{"stop_id":"9021021404005000","name":"Bergbo","lat":60.515009,"lon":16.432456,"lines":["46"],"children":["9022021404005001","9022021404005002"]},{"stop_id":"9021021480092000","name":"Bergby","lat":60.928392,"lon":17.039771,"lines":["25"],"children":["9022021480092001","9022021480092002"]},{"stop_id":"9021021480697000","name":"Bergby skola","lat":60.926346,"lon":17.042698,"lines":["25"],"children":["9022021480697001"]},{"stop_id":"9021021482113000","name":"Berge","lat":61.408647,"lon":16.814858,"lines":["65","67"],"children":["9022021482113001","9022021482113002"]},{"stop_id":"9021021484130000","name":"Berge","lat":61.854221,"lon":16.562131,"lines":["20"],"children":["9022021484130001","9022021484130002"]},{"stop_id":"9021021432051000","name":"Bergebron","lat":61.982675,"lon":17.067983,"lines":["33","35"],"children":["9022021432051001","9022021432051002"]},{"stop_id":"9021021432018000","name":"Bergesta","lat":62.049363,"lon":17.250249,"lines":["29","30","32"],"children":["9022021432018001","9022021432018002"]},{"stop_id":"9021021421017000","name":"Bergevägen","lat":61.359795,"lon":15.895222,"lines":["80"],"children":["9022021421017001","9022021421017002"]},{"stop_id":"9021021432017000","name":"Bergevägen","lat":62.049051,"lon":17.254326,"lines":["29","30","32"],"children":["9022021432017001","9022021432017002"]},{"stop_id":"9021021480008000","name":"Berglunda","lat":60.614275,"lon":16.957743,"lines":["91"],"children":["9022021480008001","9022021480008002"]},{"stop_id":"9021021484420000","name":"Bergsgatan","lat":61.728595,"lon":17.09574,"lines":["1"],"children":["9022021484420002"]},{"stop_id":"9021021432103000","name":"Bergsjö bstn","lat":61.985487,"lon":17.057721,"lines":["33","34","35"],"children":["9022021432103001","9022021432103002","9022021432103003"]},{"stop_id":"9021021432101000","name":"Bergsjö kyrka","lat":61.982522,"lon":17.063112,"lines":["33","34","35"],"children":["9022021432101001","9022021432101002"]},{"stop_id":"9021021432159000","name":"Bergsjö skola","lat":61.982942,"lon":17.057387,"lines":["33","34","35"],"children":["9022021432159001","9022021432159003","9022021432159004","9022021432159005"]},{"stop_id":"9021021432104000","name":"Bergsjöverken","lat":61.98767,"lon":17.03461,"lines":["34"],"children":["9022021432104001","9022021432104002"]},{"stop_id":"9021021432039000","name":"Bergsstigen","lat":61.898537,"lon":17.349464,"lines":["30"],"children":["9022021432039001","9022021432039002"]},{"stop_id":"9021021480093000","name":"Bergstig","lat":60.732341,"lon":17.123509,"lines":["11"],"children":["9022021480093001","9022021480093002"]},{"stop_id":"9021021483086000","name":"Bergströms","lat":61.32855,"lon":16.261574,"lines":["100","172"],"children":["9022021483086001","9022021483086002"]},{"stop_id":"9021021483116000","name":"Bergsveden","lat":61.357105,"lon":16.433172,"lines":["2"],"children":["9022021483116002"]},{"stop_id":"9021021484275000","name":"Bergsvägen","lat":61.727205,"lon":17.129565,"lines":["3","4","37"],"children":["9022021484275001","9022021484275002"]},{"stop_id":"9021021483001000","name":"Bergsänge","lat":61.56143,"lon":16.338567,"lines":["51","55"],"children":["9022021483001001","9022021483001002"]},{"stop_id":"9021021432098000","name":"Bergvik","lat":61.975554,"lon":17.053614,"lines":["34"],"children":["9022021432098001","9022021432098002"]},{"stop_id":"9021021404007000","name":"Bergviken","lat":60.569941,"lon":16.41798,"lines":["141"],"children":["9022021404007001","9022021404007002"]},{"stop_id":"9021021482380000","name":"Bergviks kyrka","lat":61.261747,"lon":16.822614,"lines":["68"],"children":["9022021482380001","9022021482380002"]},{"stop_id":"9021021482007000","name":"Bergviksbron","lat":61.257944,"lon":16.834342,"lines":["64","68"],"children":["9022021482007001","9022021482007002"]},{"stop_id":"9021021482008000","name":"Bergviksskolan","lat":61.264691,"lon":16.833389,"lines":["64","68"],"children":["9022021482008001","9022021482008002","9022021482008003","9022021482008004"]},{"stop_id":"9021021482009000","name":"Bers","lat":61.28292,"lon":16.969958,"lines":["61","64","68"],"children":["9022021482009001"]},{"stop_id":"9021021481009000","name":"Bessemergymnasiet","lat":60.623085,"lon":16.763529,"lines":["3","47"],"children":["9022021481009001","9022021481009002"]},{"stop_id":"9021021580054000","name":"Betania Enviken","lat":60.813497,"lon":15.75983,"lines":["39"],"children":["9022021580054001","9022021580054002"]},{"stop_id":"9021021484033000","name":"Betaniavägen","lat":61.601606,"lon":17.048027,"lines":["28","150","172"],"children":["9022021484033001","9022021484033002"]},{"stop_id":"9021021484276000","name":"Bilprovningen","lat":61.746156,"lon":17.110237,"lines":["21","28","29","30","34","37","53"],"children":["9022021484276001","9022021484276002"]},{"stop_id":"9021021483250000","name":"Biografteatern","lat":61.230222,"lon":16.565882,"lines":["70","75","77"],"children":["9022021483250001","9022021483250002"]},{"stop_id":"9021021480652000","name":"Bishop Hill","lat":60.682033,"lon":17.165577,"lines":["15"],"children":["9022021480652001","9022021480652002"]},{"stop_id":"9021021480095000","name":"Bjurängsvägen","lat":60.725249,"lon":17.127287,"lines":["11"],"children":["9022021480095001","9022021480095002"]},{"stop_id":"9021021484131000","name":"Bjuråker","lat":61.859621,"lon":16.564144,"lines":["20"],"children":["9022021484131001","9022021484131002"]},{"stop_id":"9021021432138000","name":"Bjåstavägen","lat":61.986231,"lon":17.036879,"lines":["34"],"children":["9022021432138001","9022021432138002"]},{"stop_id":"9021021461144000","name":"Björa","lat":61.656903,"lon":16.167276,"lines":["57"],"children":["9022021461144001","9022021461144002"]},{"stop_id":"9021021484381000","name":"Björkallén","lat":61.7129,"lon":17.089941,"lines":["4"],"children":["9022021484381001","9022021484381002"]},{"stop_id":"9021021401001000","name":"Björkbacken","lat":61.023175,"lon":16.682299,"lines":["Kuxa 70K"],"children":["9022021401001001","9022021401001002"]},{"stop_id":"9021021482383000","name":"Björkbacken","lat":61.282986,"lon":16.763921,"lines":["68"],"children":["9022021482383001","9022021482383002"]},{"stop_id":"9021021484277000","name":"Björkberg","lat":61.729461,"lon":17.141279,"lines":["3","37"],"children":["9022021484277001","9022021484277002"]},{"stop_id":"9021021484353000","name":"Björkbergs skola","lat":61.728723,"lon":17.145163,"lines":["4"],"children":["9022021484353001"]},{"stop_id":"9021021480096000","name":"Björke","lat":60.765909,"lon":17.19054,"lines":["25"],"children":["9022021480096001","9022021480096002"]},{"stop_id":"9021021404006000","name":"Björkhagsskolan","lat":60.547231,"lon":16.276868,"lines":["46"],"children":["9022021404006001","9022021404006002"]},{"stop_id":"9021021481344000","name":"Björkhagsvägen","lat":60.590259,"lon":16.720331,"lines":["11"],"children":["9022021481344001","9022021481344002"]},{"stop_id":"9021021481337000","name":"Björksätra","lat":60.604429,"lon":16.75038,"lines":["4","11"],"children":["9022021481337001","9022021481337002"]},{"stop_id":"9021021481011000","name":"Björksätra mitt","lat":60.605952,"lon":16.750717,"lines":["11"],"children":["9022021481011001","9022021481011002"]},{"stop_id":"9021021483117000","name":"Björktjära förskolan","lat":61.36589,"lon":16.38451,"lines":["1"],"children":["9022021483117001"]},{"stop_id":"9021021483118000","name":"Björktjära skola","lat":61.363541,"lon":16.386205,"lines":["1"],"children":["9022021483118001"]},{"stop_id":"9021021483397000","name":"Björktjäratjärn","lat":61.360458,"lon":16.381082,"lines":["1"],"children":["9022021483397001","9022021483397002"]},{"stop_id":"9021021483120000","name":"Björktjäravägen","lat":61.361835,"lon":16.394867,"lines":["1"],"children":["9022021483120001"]},{"stop_id":"9021021421040000","name":"Björkträvillan","lat":61.339894,"lon":15.944747,"lines":["80"],"children":["9022021421040001","9022021421040002"]},{"stop_id":"9021021401030000","name":"Björkvägen","lat":60.896379,"lon":16.730422,"lines":["775"],"children":["9022021401030002"]},{"stop_id":"9021021482010000","name":"Björneborg","lat":61.252749,"lon":16.826981,"lines":["64","68"],"children":["9022021482010001"]},{"stop_id":"9021021482190000","name":"Björnänge","lat":61.303612,"lon":17.038636,"lines":["61"],"children":["9022021482190001","9022021482190002"]},{"stop_id":"9021021480100000","name":"Björsjö","lat":60.662696,"lon":17.228103,"lines":["3","12"],"children":["9022021480100001","9022021480100002"]},{"stop_id":"9021021483286000","name":"Björtomta","lat":61.350118,"lon":16.642606,"lines":["100","172"],"children":["9022021483286001","9022021483286002"]},{"stop_id":"9021021421077000","name":"Blindtarmsvägen","lat":61.337469,"lon":15.998442,"lines":["80"],"children":["9022021421077001","9022021421077002"]},{"stop_id":"9021021484278000","name":"Blockvägen","lat":61.741498,"lon":17.112198,"lines":["2"],"children":["9022021484278002"]},{"stop_id":"9021021484014000","name":"Blomberget","lat":61.76725,"lon":16.878706,"lines":["20"],"children":["9022021484014001"]},{"stop_id":"9021021483119000","name":"Blomkransen","lat":61.34586,"lon":16.371864,"lines":["3","75","76"],"children":["9022021483119001","9022021483119002"]},{"stop_id":"9021021401138000","name":"Blomquist","lat":60.886462,"lon":16.68343,"lines":["777","Kuxa 73","Kuxa 74"],"children":["9022021401138001","9022021401138002"]},{"stop_id":"9021021480596000","name":"Blomsterängsvägen","lat":60.661215,"lon":17.185971,"lines":["3"],"children":["9022021480596001","9022021480596002"]},{"stop_id":"9021021483287000","name":"Blykällarbacken","lat":61.367093,"lon":16.638908,"lines":["78"],"children":["9022021483287001","9022021483287002"]},{"stop_id":"9021021421006000","name":"Blyss","lat":61.370067,"lon":15.74573,"lines":["83"],"children":["9022021421006001","9022021421006002"]},{"stop_id":"9021021484171000","name":"Blästa","lat":61.758278,"lon":17.205267,"lines":["37"],"children":["9022021484171001","9022021484171002"]},{"stop_id":"9021021480102000","name":"Blåsåsen","lat":60.6793,"lon":17.124726,"lines":["3","12","15","195"],"children":["9022021480102011","9022021480102012"]},{"stop_id":"9021021482235000","name":"Blötängsvägen","lat":61.294974,"lon":17.033073,"lines":["61","150","172"],"children":["9022021482235001","9022021482235002"]},{"stop_id":"9021021482114000","name":"Boda","lat":61.363243,"lon":16.921952,"lines":["65","67"],"children":["9022021482114001","9022021482114002"]},{"stop_id":"9021021483288000","name":"Bodarna","lat":61.347599,"lon":16.491192,"lines":["78","100","172"],"children":["9022021483288001","9022021483288002"]},{"stop_id":"9021021482011000","name":"Bodarne","lat":61.285804,"lon":16.760221,"lines":["68"],"children":["9022021482011001","9022021482011002"]},{"stop_id":"9021021483087000","name":"Bodåker","lat":61.329674,"lon":16.25016,"lines":["100","172"],"children":["9022021483087001","9022021483087002"]},{"stop_id":"9021021483203000","name":"Bofara","lat":61.210838,"lon":16.533041,"lines":["75"],"children":["9022021483203001","9022021483203002"]},{"stop_id":"9021021483002000","name":"Bogården","lat":61.570877,"lon":16.455343,"lines":["22"],"children":["9022021483002001","9022021483002002"]},{"stop_id":"9021021482191000","name":"Bohusvägen","lat":61.294751,"lon":17.073961,"lines":["2"],"children":["9022021482191001","9022021482191002"]},{"stop_id":"9021021483289000","name":"Boives","lat":61.347666,"lon":16.712917,"lines":["100","172"],"children":["9022021483289001","9022021483289002"]},{"stop_id":"9021021432042000","name":"Bolagsgården","lat":61.911975,"lon":17.265234,"lines":["30"],"children":["9022021432042001","9022021432042002"]},{"stop_id":"9021021482261000","name":"Bolagsvägen","lat":61.259478,"lon":17.139668,"lines":["63"],"children":["9022021482261001","9022021482261002"]},{"stop_id":"9021021483351000","name":"Bollnäs Norr","lat":61.369185,"lon":16.392612,"lines":["1"],"children":["9022021483351001"]},{"stop_id":"9021021483478000","name":"Bollnäs folkhögsskola","lat":61.342985,"lon":16.391673,"lines":["4","70","173"],"children":["9022021483478001","9022021483478002"]},{"stop_id":"9021021483370000","name":"Bollnäs resecentrum","lat":61.35051,"lon":16.392692,"lines":["1","2","3","4","22","51","52","55","70","75","76","77","78","100","172","173","300","SJ-Tåg","X-tåg"],"children":["9022021483370002","9022021483370003","9022021483370004","9022021483370005","9022021483370006","9022021483370007","9022021483370008","9022021483370009","9022021483370023","9022021483370024","9022021483370042","9022021483370043"]},{"stop_id":"9021021483173000","name":"Bollnäs sjukhuset","lat":61.353919,"lon":16.362945,"lines":["4","100","172","173"],"children":["9022021483173001","9022021483173002","9022021483173005"]},{"stop_id":"9021021480190000","name":"Bomhus centrum","lat":60.67613,"lon":17.216509,"lines":["12"],"children":["9022021480190001","9022021480190002"]},{"stop_id":"9021021484128000","name":"Bondebo","lat":61.834023,"lon":16.568353,"lines":["20"],"children":["9022021484128001","9022021484128002"]},{"stop_id":"9021021483122000","name":"Bonden","lat":61.355463,"lon":16.386486,"lines":["1"],"children":["9022021483122001","9022021483122002"]},{"stop_id":"9021021421095000","name":"Borbäcken","lat":61.350237,"lon":15.589015,"lines":["83"],"children":["9022021421095001","9022021421095002"]},{"stop_id":"9021021482115000","name":"Borg","lat":61.338715,"lon":17.036428,"lines":["67"],"children":["9022021482115001","9022021482115002"]},{"stop_id":"9021021480103000","name":"Borgarskolan","lat":60.67703,"lon":17.131916,"lines":["1","2","4","12","99"],"children":["9022021480103001","9022021480103002"]},{"stop_id":"9021021404009000","name":"Born","lat":60.544535,"lon":16.302667,"lines":["141","241"],"children":["9022021404009001","9022021404009002"]},{"stop_id":"9021021421091000","name":"Born","lat":61.373868,"lon":15.758253,"lines":["83"],"children":["9022021421091001","9022021421091002"]},{"stop_id":"9021021483123000","name":"Bornvägen","lat":61.368238,"lon":16.387489,"lines":["1"],"children":["9022021483123002"]},{"stop_id":"9021021481012000","name":"Borrsjöån","lat":60.605803,"lon":16.621964,"lines":["42","46","141"],"children":["9022021481012001","9022021481012002"]},{"stop_id":"9021021461351000","name":"Borrvägen","lat":61.83135,"lon":16.046106,"lines":["82"],"children":["9022021461351001"]},{"stop_id":"9021021432068000","name":"Bosta","lat":62.051212,"lon":17.215462,"lines":["33"],"children":["9022021432068001","9022021432068002"]},{"stop_id":"9021021401031000","name":"Bosågen","lat":60.917806,"lon":16.62587,"lines":["Kuxa 71","Kuxa 74"],"children":["9022021401031001","9022021401031002"]},{"stop_id":"9021021481015000","name":"Botjärn","lat":60.762413,"lon":16.479063,"lines":["43"],"children":["9022021481015001","9022021481015002"]},{"stop_id":"9021021484062000","name":"Bowlinghallen","lat":61.732801,"lon":17.103693,"lines":["1","2"],"children":["9022021484062001","9022021484062002"]},{"stop_id":"9021021484233000","name":"Bramsvägen","lat":61.797011,"lon":16.519166,"lines":["53"],"children":["9022021484233001","9022021484233002"]},{"stop_id":"9021021484139000","name":"Brandstationen","lat":61.895238,"lon":16.547565,"lines":["20"],"children":["9022021484139001"]},{"stop_id":"9021021484332000","name":"Brantens väg","lat":61.754791,"lon":17.117665,"lines":["30","34"],"children":["9022021484332001","9022021484332002"]},{"stop_id":"9021021401032000","name":"Brattfors","lat":60.843455,"lon":16.666544,"lines":["Kuxa 72"],"children":["9022021401032001","9022021401032002"]},{"stop_id":"9021021432154000","name":"Bredåker","lat":61.976242,"lon":17.129149,"lines":["35"],"children":["9022021432154001","9022021432154002"]},{"stop_id":"9021021401033000","name":"Bresiljeån","lat":60.966351,"lon":16.441382,"lines":["Kuxa 71"],"children":["9022021401033001"]},{"stop_id":"9021021432002000","name":"Bringsta","lat":61.925084,"lon":17.215553,"lines":["29"],"children":["9022021432002001","9022021432002002"]},{"stop_id":"9021021432136000","name":"Bringstaskolan","lat":61.926041,"lon":17.216739,"lines":["30","35"],"children":["9022021432136004"]},{"stop_id":"9021021480106000","name":"Brisgatan","lat":60.64647,"lon":17.143311,"lines":["4"],"children":["9022021480106001","9022021480106002"]},{"stop_id":"9021021483382000","name":"Britas","lat":61.575418,"lon":16.55368,"lines":["22"],"children":["9022021483382001","9022021483382002"]},{"stop_id":"9021021481017000","name":"Brokvarn","lat":60.59099,"lon":16.53721,"lines":["46","141"],"children":["9022021481017001","9022021481017002"]},{"stop_id":"9021021483304000","name":"Brolins","lat":61.377882,"lon":16.628233,"lines":["78"],"children":["9022021483304001","9022021483304002"]},{"stop_id":"9021021484384000","name":"Bromangymnasiet","lat":61.743858,"lon":17.105559,"lines":["21","28","29","30","34","37","53","152"],"children":["9022021484384001"]},{"stop_id":"9021021484399000","name":"Bromsvallen","lat":61.809467,"lon":17.029686,"lines":["34"],"children":["9022021484399001","9022021484399002"]},{"stop_id":"9021021482194000","name":"Bromsäng","lat":61.298278,"lon":17.114706,"lines":["63"],"children":["9022021482194001"]},{"stop_id":"9021021401034000","name":"Bron","lat":60.895469,"lon":16.688154,"lines":["777","Kuxa 71","Kuxa 73","Kuxa 74"],"children":["9022021401034001","9022021401034002"]},{"stop_id":"9021021483126000","name":"Brotorget","lat":61.347874,"lon":16.396137,"lines":["4","70","75","76","100"],"children":["9022021483126002","9022021483126003"]},{"stop_id":"9021021481018000","name":"Bruket","lat":60.614725,"lon":16.772833,"lines":["2","4","11","43"],"children":["9022021481018001","9022021481018002"]},{"stop_id":"9021021483047000","name":"Bruks","lat":61.475907,"lon":16.370562,"lines":["52"],"children":["9022021483047001","9022021483047002"]},{"stop_id":"9021021482263000","name":"Bruksgården","lat":61.259815,"lon":17.160854,"lines":["63"],"children":["9022021482263001","9022021482263002"]},{"stop_id":"9021021482282000","name":"Bruksmuseet","lat":61.213556,"lon":17.134636,"lines":["60","63"],"children":["9022021482282001","9022021482282002"]},{"stop_id":"9021021401035000","name":"Bruksvägen","lat":60.882229,"lon":16.702004,"lines":["26","44","775","Kuxa 72","Kuxa 73"],"children":["9022021401035001","9022021401035002"]},{"stop_id":"9021021432177000","name":"Bruksvägen","lat":62.058795,"lon":17.401995,"lines":["32"],"children":["9022021432177001"]},{"stop_id":"9021021480108000","name":"Brunnsgatan","lat":60.66984,"lon":17.149,"lines":["49","99"],"children":["9022021480108001"]},{"stop_id":"9021021484040000","name":"Brunnsnäs","lat":61.635404,"lon":17.073544,"lines":["28","150","172"],"children":["9022021484040001","9022021484040002"]},{"stop_id":"9021021461107000","name":"Bryggargatan","lat":61.824382,"lon":16.107874,"lines":["19","53","58"],"children":["9022021461107001","9022021461107002"]},{"stop_id":"9021021461206000","name":"Bryggerivägen","lat":61.794955,"lon":16.201311,"lines":["19","58"],"children":["9022021461206001","9022021461206002"]},{"stop_id":"9021021480599000","name":"Brynäs centrum","lat":60.671352,"lon":17.168127,"lines":["12","14"],"children":["9022021480599003","9022021480599004"]},{"stop_id":"9021021421041000","name":"Bränderna","lat":61.354119,"lon":16.097209,"lines":["80","100"],"children":["9022021421041001","9022021421041002"]},{"stop_id":"9021021461202000","name":"Brännas","lat":61.835392,"lon":16.027402,"lines":["54"],"children":["9022021461202001","9022021461202002"]},{"stop_id":"9021021482012000","name":"Brännvinsbäcken","lat":61.258457,"lon":17.019872,"lines":["61","68"],"children":["9022021482012001","9022021482012002"]},{"stop_id":"9021021461214000","name":"Bränta","lat":61.816057,"lon":15.989759,"lines":["82"],"children":["9022021461214001","9022021461214002"]},{"stop_id":"9021021483362000","name":"Brönars","lat":61.321093,"lon":16.274591,"lines":["76"],"children":["9022021483362001","9022021483362002"]},{"stop_id":"9021021482116000","name":"Brötgrind","lat":61.350331,"lon":17.026175,"lines":["67"],"children":["9022021482116001","9022021482116002"]},{"stop_id":"9021021483128000","name":"Bull-Olles","lat":61.3562,"lon":16.419005,"lines":["2","77","78","100","172"],"children":["9022021483128001","9022021483128002"]},{"stop_id":"9021021483359000","name":"Bulleberget","lat":61.350298,"lon":16.652665,"lines":["100","172"],"children":["9022021483359001","9022021483359002"]},{"stop_id":"9021021480009000","name":"Bullerbyn","lat":60.564889,"lon":17.128617,"lines":["49"],"children":["9022021480009001","9022021480009002"]},{"stop_id":"9021021401036000","name":"Bunges kapell","lat":60.965158,"lon":16.446897,"lines":["Kuxa 71"],"children":["9022021401036001"]},{"stop_id":"9021021481019000","name":"Burmansgatan","lat":60.588187,"lon":16.534556,"lines":["46","141"],"children":["9022021481019001","9022021481019002"]},{"stop_id":"9021021480112000","name":"Bussplan","lat":60.728327,"lon":17.108994,"lines":["11"],"children":["9022021480112001","9022021480112002"]},{"stop_id":"9021021484214000","name":"Byberg","lat":61.741498,"lon":16.878113,"lines":["21","53"],"children":["9022021484214001","9022021484214002"]},{"stop_id":"9021021483380000","name":"Bybergs","lat":61.570709,"lon":16.493283,"lines":["22"],"children":["9022021483380001","9022021483380002"]},{"stop_id":"9021021484215000","name":"Bybergsvägen","lat":61.747818,"lon":16.873222,"lines":["21","53"],"children":["9022021484215001","9022021484215002"]},{"stop_id":"9021021432115000","name":"Bygget","lat":62.011526,"lon":16.943041,"lines":["34"],"children":["9022021432115001","9022021432115002"]},{"stop_id":"9021021480113000","name":"Bygränsvägen","lat":60.728791,"lon":17.171567,"lines":["3"],"children":["9022021480113001","9022021480113002"]},{"stop_id":"9021021432066000","name":"Byn","lat":62.052139,"lon":17.188507,"lines":["33"],"children":["9022021432066001","9022021432066002"]},{"stop_id":"9021021482013000","name":"Byn","lat":61.279029,"lon":16.858396,"lines":["64"],"children":["9022021482013001","9022021482013002"]},{"stop_id":"9021021484111000","name":"Bytesboden","lat":61.826038,"lon":16.780002,"lines":["20"],"children":["9022021484111001","9022021484111002"]},{"stop_id":"9021021480010000","name":"Byvägen","lat":60.609579,"lon":16.900258,"lines":["91"],"children":["9022021480010001","9022021480010002"]},{"stop_id":"9021021432107000","name":"Byåkern","lat":62.006216,"lon":17.028828,"lines":["34"],"children":["9022021432107001","9022021432107002"]},{"stop_id":"9021021480115000","name":"Bäck","lat":60.648353,"lon":16.993091,"lines":["91","99"],"children":["9022021480115002","9022021480115003","9022021480115004"]},{"stop_id":"9021021484200000","name":"Bäck","lat":61.723087,"lon":16.981696,"lines":["21","53"],"children":["9022021484200001","9022021484200002"]},{"stop_id":"9021021461039000","name":"Bäckan","lat":62.000365,"lon":15.840822,"lines":["54"],"children":["9022021461039001","9022021461039002"]},{"stop_id":"9021021404011000","name":"Bäcken","lat":60.564028,"lon":16.366452,"lines":["141"],"children":["9022021404011001","9022021404011002"]},{"stop_id":"9021021483204000","name":"Bäcken","lat":61.213788,"lon":16.60994,"lines":["70","75"],"children":["9022021483204002"]},{"stop_id":"9021021481338000","name":"Bäckgatan","lat":60.601528,"lon":16.737773,"lines":["11"],"children":["9022021481338001","9022021481338002"]},{"stop_id":"9021021484204000","name":"Bäckskogen","lat":61.723567,"lon":16.963215,"lines":["21","53"],"children":["9022021484204001","9022021484204002"]},{"stop_id":"9021021461009000","name":"Bäckänge","lat":61.819083,"lon":16.172669,"lines":["53","58"],"children":["9022021461009001","9022021461009002"]},{"stop_id":"9021021483205000","name":"Bäckänge","lat":61.292033,"lon":16.535683,"lines":["77"],"children":["9022021483205001","9022021483205002"]},{"stop_id":"9021021432012000","name":"Bäling","lat":62.020911,"lon":17.252224,"lines":["29","30"],"children":["9022021432012001","9022021432012002"]},{"stop_id":"9021021484108000","name":"Bästdal","lat":61.820773,"lon":16.785926,"lines":["20"],"children":["9022021484108001","9022021484108002"]},{"stop_id":"9021021483175000","name":"Bäverstigen","lat":61.361156,"lon":16.383656,"lines":["1"],"children":["9022021483175002"]},{"stop_id":"9021021432097000","name":"Bålleberget","lat":61.970175,"lon":17.056979,"lines":["34"],"children":["9022021432097001","9022021432097002"]},{"stop_id":"9021021481313000","name":"Bångstorp","lat":60.528055,"lon":16.776878,"lines":["47"],"children":["9022021481313001","9022021481313002"]},{"stop_id":"9021021421018000","name":"Båta","lat":61.352969,"lon":15.915855,"lines":["80"],"children":["9022021421018001","9022021421018002"]},{"stop_id":"9021021461210000","name":"Båthusvägen","lat":62.076162,"lon":15.825909,"lines":["54"],"children":["9022021461210001","9022021461210002"]},{"stop_id":"9021021484412000","name":"Båtmanstorpet","lat":61.713897,"lon":17.342005,"lines":["37"],"children":["9022021484412001","9022021484412002"]},{"stop_id":"9021021481345000","name":"Båtstavägen","lat":60.591225,"lon":16.712949,"lines":["11"],"children":["9022021481345001","9022021481345002"]},{"stop_id":"9021021482310000","name":"Böle","lat":61.182204,"lon":16.845204,"lines":["64"],"children":["9022021482310001","9022021482310002"]},{"stop_id":"9021021483206000","name":"Böle","lat":61.290474,"lon":16.504515,"lines":["70"],"children":["9022021483206001","9022021483206002"]},{"stop_id":"9021021481021000","name":"Böle backe","lat":60.656284,"lon":16.798197,"lines":["44"],"children":["9022021481021001","9022021481021002"]},{"stop_id":"9021021432080000","name":"Böleberget","lat":61.876364,"lon":17.043532,"lines":["34"],"children":["9022021432080001","9022021432080002"]},{"stop_id":"9021021482311000","name":"Bölesbacken","lat":61.176853,"lon":16.840771,"lines":["64"],"children":["9022021482311001","9022021482311002"]},{"stop_id":"9021021484438000","name":"Böleströmmen","lat":61.754834,"lon":16.86892,"lines":["21"],"children":["9022021484438001","9022021484438002"]},{"stop_id":"9021021404013000","name":"Bölevägen","lat":60.529027,"lon":16.316855,"lines":["46"],"children":["9022021404013001","9022021404013002"]},{"stop_id":"9021021484216000","name":"Bölevägen","lat":61.750516,"lon":16.871384,"lines":["21","53"],"children":["9022021484216001","9022021484216002"]},{"stop_id":"9021021401037000","name":"Bölsbacken","lat":60.874655,"lon":16.691041,"lines":["775"],"children":["9022021401037001"]},{"stop_id":"9021021480699000","name":"Bönakrysset","lat":60.699785,"lon":17.170245,"lines":["25"],"children":["9022021480699001","9022021480699002"]},{"stop_id":"9021021480116000","name":"Bönan","lat":60.737554,"lon":17.308964,"lines":["95","195"],"children":["9022021480116001","9022021480116002"]},{"stop_id":"9021021480117000","name":"Bönans skola","lat":60.740497,"lon":17.308295,"lines":["95","195"],"children":["9022021480117002"]},{"stop_id":"9021021480161000","name":"Campus Sätra","lat":60.690004,"lon":17.125146,"lines":["2","15","195"],"children":["9022021480161001","9022021480161002"]},{"stop_id":"9021021401038000","name":"Carl-Ols backen","lat":60.894024,"lon":16.765539,"lines":["775"],"children":["9022021401038001"]},{"stop_id":"9021021421019000","name":"Celsiusskolan","lat":61.379611,"lon":15.81146,"lines":["80","83"],"children":["9022021421019003"]},{"stop_id":"9021021483048000","name":"Centralgatan","lat":61.472415,"lon":16.377178,"lines":["52"],"children":["9022021483048001","9022021483048002"]},{"stop_id":"9021021484048000","name":"Centralgatan","lat":61.642455,"lon":17.079719,"lines":["28","150","172"],"children":["9022021484048001","9022021484048002"]},{"stop_id":"9021021483130000","name":"Combigrillen","lat":61.357243,"lon":16.422539,"lines":["2"],"children":["9022021483130001"]},{"stop_id":"9021021482117000","name":"Daglösa","lat":61.383718,"lon":16.879163,"lines":["65","67"],"children":["9022021482117001","9022021482117002"]},{"stop_id":"9021021481024000","name":"Dalfors","lat":60.655334,"lon":16.508608,"lines":["42"],"children":["9022021481024001","9022021481024002"]},{"stop_id":"9021021484052000","name":"Dammsveden","lat":61.70067,"lon":17.072289,"lines":["28","150","172"],"children":["9022021484052001","9022021484052002"]},{"stop_id":"9021021461083000","name":"Davids affär","lat":61.803644,"lon":15.720416,"lines":["82"],"children":["9022021461083001","9022021461083002"]},{"stop_id":"9021021484390000","name":"Dellenbaden","lat":61.856457,"lon":16.614007,"lines":["20"],"children":["9022021484390001","9022021484390002"]},{"stop_id":"9021021484140000","name":"Dellengården","lat":61.896367,"lon":16.552804,"lines":["20"],"children":["9022021484140001"]},{"stop_id":"9021021484125000","name":"Delsbo Kyrka","lat":61.814238,"lon":16.569646,"lines":["20"],"children":["9022021484125001","9022021484125002"]},{"stop_id":"9021021484230000","name":"Delsbo Torg","lat":61.799571,"lon":16.554095,"lines":["20","53"],"children":["9022021484230001","9022021484230002","9022021484230005"]},{"stop_id":"9021021484127000","name":"Delsbo forngård","lat":61.82039,"lon":16.563879,"lines":["20"],"children":["9022021484127001","9022021484127002"]},{"stop_id":"9021021480479000","name":"Depkens väg","lat":60.67647,"lon":17.266827,"lines":["1"],"children":["9022021480479001","9022021480479002"]},{"stop_id":"9021021480120000","name":"Dimgatan","lat":60.648605,"lon":17.13073,"lines":["4"],"children":["9022021480120001","9022021480120002"]},{"stop_id":"9021021483003000","name":"Djupa","lat":61.598218,"lon":16.301448,"lines":["55","57"],"children":["9022021483003001","9022021483003002"]},{"stop_id":"9021021483207000","name":"Djupa torg","lat":61.286348,"lon":16.569159,"lines":["77"],"children":["9022021483207001","9022021483207002"]},{"stop_id":"9021021481025000","name":"Djupdalshagen","lat":60.755591,"lon":16.534385,"lines":["43"],"children":["9022021481025001","9022021481025002"]},{"stop_id":"9021021480121000","name":"Djuphamn","lat":60.735775,"lon":17.300338,"lines":["95","195"],"children":["9022021480121001","9022021480121002"]},{"stop_id":"9021021481026000","name":"Djupmurs","lat":60.366345,"lon":16.77502,"lines":["47"],"children":["9022021481026001","9022021481026002"]},{"stop_id":"9021021432120000","name":"Djupmyra","lat":62.091538,"lon":16.771729,"lines":["34"],"children":["9022021432120001","9022021432120002"]},{"stop_id":"9021021482167000","name":"Djupvik","lat":61.281965,"lon":17.169902,"lines":["62"],"children":["9022021482167001","9022021482167002"]},{"stop_id":"9021021481027000","name":"Djurkliniken","lat":60.638636,"lon":16.791258,"lines":["11","44"],"children":["9022021481027001","9022021481027002"]},{"stop_id":"9021021481271000","name":"Doktorsvägen","lat":60.290786,"lon":16.891199,"lines":["48","49"],"children":["9022021481271002"]},{"stop_id":"9021021480122000","name":"Domargränd","lat":60.66815,"lon":17.13574,"lines":["4"],"children":["9022021480122001","9022021480122002"]},{"stop_id":"9021021480123000","name":"Domarringen","lat":60.662715,"lon":17.21519,"lines":["3","12"],"children":["9022021480123001","9022021480123002"]},{"stop_id":"9021021421007000","name":"Dulsa","lat":61.345872,"lon":15.652556,"lines":["83"],"children":["9022021421007001","9022021421007002"]},{"stop_id":"9021021480124000","name":"Duro","lat":60.669407,"lon":17.068908,"lines":["4"],"children":["9022021480124001","9022021480124002"]},{"stop_id":"9021021461191000","name":"Duvan","lat":61.828857,"lon":16.092394,"lines":["19","51","53","54","57","58","82"],"children":["9022021461191001","9022021461191002"]},{"stop_id":"9021021421020000","name":"Duvberg","lat":61.367041,"lon":15.87202,"lines":["80","100","172"],"children":["9022021421020001","9022021421020002"]},{"stop_id":"9021021432008000","name":"Dvästa","lat":61.969342,"lon":17.241144,"lines":["29","30"],"children":["9022021432008001","9022021432008002"]},{"stop_id":"9021021482195000","name":"E-Center","lat":61.295235,"lon":17.019016,"lines":["1"],"children":["9022021482195002"]},{"stop_id":"9021021482196000","name":"E-Center/Väg 50","lat":61.297003,"lon":17.020092,"lines":["1","61","64","68","100","172"],"children":["9022021482196001","9022021482196002"]},{"stop_id":"9021021482014000","name":"Ebomsbro","lat":61.335469,"lon":16.743461,"lines":["100","172"],"children":["9022021482014001","9022021482014002"]},{"stop_id":"9021021432118000","name":"Ede","lat":62.054157,"lon":16.846756,"lines":["34"],"children":["9022021432118001","9022021432118002"]},{"stop_id":"9021021461146000","name":"Ede","lat":61.765721,"lon":16.157906,"lines":["51","57"],"children":["9022021461146001","9022021461146002"]},{"stop_id":"9021021484126000","name":"Ede skola","lat":61.806834,"lon":16.551957,"lines":["20"],"children":["9022021484126002"]},{"stop_id":"9021021461148000","name":"Ede-gräns","lat":61.781982,"lon":16.139294,"lines":["51","57"],"children":["9022021461148001","9022021461148002"]},{"stop_id":"9021021461147000","name":"Edeforsen","lat":61.770943,"lon":16.154745,"lines":["51","57"],"children":["9022021461147001","9022021461147002"]},{"stop_id":"9021021421037000","name":"Edsbyn Centrum","lat":61.376057,"lon":15.818006,"lines":["39","80","83","100","172"],"children":["9022021421037001","9022021421037002"]},{"stop_id":"9021021421022000","name":"Edsbyverken","lat":61.373548,"lon":15.845178,"lines":["80","100","172"],"children":["9022021421022001","9022021421022002"]},{"stop_id":"9021021404015000","name":"Edsken","lat":60.542428,"lon":16.231758,"lines":["241"],"children":["9022021404015001","9022021404015002"]},{"stop_id":"9021021483089000","name":"Edstuga","lat":61.331191,"lon":16.316354,"lines":["76"],"children":["9022021483089001","9022021483089002"]},{"stop_id":"9021021483110000","name":"Edstuga väg 50","lat":61.339882,"lon":16.305622,"lines":["100","172"],"children":["9022021483110001","9022021483110002"]},{"stop_id":"9021021483090000","name":"Edstuga östra","lat":61.332378,"lon":16.322854,"lines":["76"],"children":["9022021483090001","9022021483090002"]},{"stop_id":"9021021432043000","name":"Edsäter","lat":61.915798,"lon":17.257612,"lines":["30"],"children":["9022021432043001","9022021432043002"]},{"stop_id":"9021021482118000","name":"Edvik","lat":61.357105,"lon":17.049208,"lines":["65"],"children":["9022021482118001","9022021482118002"]},{"stop_id":"9021021482374000","name":"Edviksängarna","lat":61.356475,"lon":17.044491,"lines":["65"],"children":["9022021482374001","9022021482374002"]},{"stop_id":"9021021483292000","name":"Ehrins","lat":61.350548,"lon":16.511347,"lines":["78","100","172"],"children":["9022021483292001","9022021483292002"]},{"stop_id":"9021021480125000","name":"Ekvägen","lat":60.660634,"lon":17.120652,"lines":["4"],"children":["9022021480125001","9022021480125002"]},{"stop_id":"9021021480013000","name":"Elisabetgatan","lat":60.616164,"lon":16.890692,"lines":["91"],"children":["9022021480013001","9022021480013002"]},{"stop_id":"9021021482015000","name":"Ellervik","lat":61.267772,"lon":16.841244,"lines":["64","68"],"children":["9022021482015001","9022021482015002"]},{"stop_id":"9021021482017000","name":"Emböle","lat":61.326257,"lon":16.764513,"lines":["100","172"],"children":["9022021482017001","9022021482017002"]},{"stop_id":"9021021461108000","name":"Enbergsgatan","lat":61.826758,"lon":16.10877,"lines":["58","82"],"children":["9022021461108001","9022021461108002"]},{"stop_id":"9021021481029000","name":"Enen","lat":60.61774,"lon":16.76675,"lines":["1","41","42","43","46","47","141"],"children":["9022021481029001","9022021481029002"]},{"stop_id":"9021021480126000","name":"Engelbrektsgatan","lat":60.677215,"lon":17.128611,"lines":["12","99"],"children":["9022021480126001","9022021480126002"]},{"stop_id":"9021021482018000","name":"Engelska kanalen","lat":61.30932,"lon":16.786319,"lines":["68"],"children":["9022021482018002"]},{"stop_id":"9021021480216000","name":"Engelska skolan","lat":60.663502,"lon":17.155358,"lines":["3","95","99","195"],"children":["9022021480216001","9022021480216002"]},{"stop_id":"9021021480127000","name":"Engeltofta","lat":60.706146,"lon":17.239363,"lines":["95","195"],"children":["9022021480127001","9022021480127002"]},{"stop_id":"9021021480128000","name":"Engesberg","lat":60.731347,"lon":17.287576,"lines":["95","195"],"children":["9022021480128001","9022021480128002"]},{"stop_id":"9021021480129000","name":"Engesvik","lat":60.733159,"lon":17.294167,"lines":["95","195"],"children":["9022021480129001","9022021480129002"]},{"stop_id":"9021021484197000","name":"Enoksnäs","lat":61.669714,"lon":17.240028,"lines":["38"],"children":["9022021484197001","9022021484197002"]},{"stop_id":"9021021482197000","name":"Enriset","lat":61.313557,"lon":17.049313,"lines":["3"],"children":["9022021482197001"]},{"stop_id":"9021021580056000","name":"Enviken busstn","lat":60.808165,"lon":15.75857,"lines":["39"],"children":["9022021580056001"]},{"stop_id":"9021021401017000","name":"Envägen","lat":60.898597,"lon":16.739348,"lines":["26","Kuxa 70A","Kuxa 74"],"children":["9022021401017001","9022021401017002"]},{"stop_id":"9021021484026000","name":"Enånger","lat":61.547459,"lon":17.005163,"lines":["28"],"children":["9022021484026001","9022021484026002"]},{"stop_id":"9021021484029000","name":"Enånger Oppänge","lat":61.549328,"lon":16.999874,"lines":["28","150","172"],"children":["9022021484029001","9022021484029002"]},{"stop_id":"9021021484430000","name":"Enångers bygdegård","lat":61.543246,"lon":16.996481,"lines":["28"],"children":["9022021484430001","9022021484430002"]},{"stop_id":"9021021484025000","name":"Enångers skola","lat":61.544319,"lon":17.003029,"lines":["28"],"children":["9022021484025001","9022021484025002","9022021484025003"]},{"stop_id":"9021021401040000","name":"Erik Ols","lat":60.89387,"lon":16.749232,"lines":["775"],"children":["9022021401040001"]},{"stop_id":"9021021483208000","name":"Erik-Ers","lat":61.253225,"lon":16.416366,"lines":["75"],"children":["9022021483208001","9022021483208002"]},{"stop_id":"9021021484287000","name":"Erik-Lars","lat":61.72782,"lon":17.0913,"lines":["1"],"children":["9022021484287002"]},{"stop_id":"9021021483209000","name":"Erik-Mårs","lat":61.336794,"lon":16.449112,"lines":["77"],"children":["9022021483209001","9022021483209002"]},{"stop_id":"9021021480480000","name":"Eriksberg","lat":60.671312,"lon":17.177346,"lines":["1","12","14"],"children":["9022021480480001","9022021480480002"]},{"stop_id":"9021021482244000","name":"Eriksgatan","lat":61.304057,"lon":17.111961,"lines":["63"],"children":["9022021482244001","9022021482244002"]},{"stop_id":"9021021404016000","name":"Erikslund","lat":60.547391,"lon":16.475032,"lines":["46"],"children":["9022021404016001","9022021404016002"]},{"stop_id":"9021021401041000","name":"Erikssons affär","lat":60.940167,"lon":16.658489,"lines":["Kuxa 74"],"children":["9022021401041001","9022021401041002"]},{"stop_id":"9021021401002000","name":"Erk-Mats","lat":61.046284,"lon":16.685195,"lines":["Kuxa 70K"],"children":["9022021401002002"]},{"stop_id":"9021021483381000","name":"Erk-Pers","lat":61.572223,"lon":16.530301,"lines":["22"],"children":["9022021483381001","9022021483381002"]},{"stop_id":"9021021480518000","name":"Ersbo","lat":60.470831,"lon":16.942294,"lines":["48"],"children":["9022021480518001","9022021480518002"]},{"stop_id":"9021021480633000","name":"Ersbogatan","lat":60.639686,"lon":17.128682,"lines":["4"],"children":["9022021480633001","9022021480633002"]},{"stop_id":"9021021483004000","name":"Ersk-Jons","lat":61.530359,"lon":16.36858,"lines":["55"],"children":["9022021483004001","9022021483004002"]},{"stop_id":"9021021483005000","name":"Ersk-Ols","lat":61.528236,"lon":16.367677,"lines":["22","55"],"children":["9022021483005001","9022021483005002"]},{"stop_id":"9021021480135000","name":"Eskövägen","lat":60.795252,"lon":17.207858,"lines":["25"],"children":["9022021480135001","9022021480135002"]},{"stop_id":"9021021480142000","name":"Estraden","lat":60.687104,"lon":17.127004,"lines":["2","3","15","195"],"children":["9022021480142001","9022021480142002"]},{"stop_id":"9021021404017000","name":"Fagersta backe","lat":60.526095,"lon":16.350172,"lines":["46"],"children":["9022021404017001","9022021404017002"]},{"stop_id":"9021021404018000","name":"Fagersta by","lat":60.525375,"lon":16.332604,"lines":["46"],"children":["9022021404018001","9022021404018002"]},{"stop_id":"9021021480137000","name":"Fagervik","lat":60.889412,"lon":17.121285,"lines":["25"],"children":["9022021480137001","9022021480137002"]},{"stop_id":"9021021404019000","name":"Faktorsgatan","lat":60.570796,"lon":16.267527,"lines":["46"],"children":["9022021404019001","9022021404019002"]},{"stop_id":"9021021401004000","name":"Fallåsvägen","lat":61.032365,"lon":16.683663,"lines":["Kuxa 70K"],"children":["9022021401004001","9022021401004002"]},{"stop_id":"9021021580000000","name":"Falun Knutpunkten","lat":60.604691,"lon":15.636432,"lines":["39","241"],"children":["9022021580000012","9022021580000013"]},{"stop_id":"9021021580348000","name":"Falun resecentrum","lat":24.172145,"lon":63.801315,"lines":["39","241","TIB"],"children":["9022021580348001","9022021580348017","9022021580348024","9022021580348046"]},{"stop_id":"9021021404020000","name":"Faluvägen","lat":60.541453,"lon":16.281376,"lines":["46","241"],"children":["9022021404020001","9022021404020002"]},{"stop_id":"9021021482200000","name":"Faxeholmen","lat":61.305328,"lon":17.070655,"lines":["1","63"],"children":["9022021482200001","9022021482200002"]},{"stop_id":"9021021482384000","name":"Faxepark","lat":61.30374,"lon":17.064806,"lines":["1","2","3","62","63","64","65","67","151","152"],"children":["9022021482384001","9022021482384002"]},{"stop_id":"9021021484035000","name":"Fegärde","lat":61.611453,"lon":17.050815,"lines":["28"],"children":["9022021484035001","9022021484035002"]},{"stop_id":"9021021482006000","name":"Fejan","lat":61.207722,"lon":17.098463,"lines":["61","68"],"children":["9022021482006001","9022021482006002"]},{"stop_id":"9021021401022000","name":"Fillmansvägen","lat":60.922016,"lon":16.720674,"lines":["Kuxa 70A","Kuxa 70K","Kuxa 74"],"children":["9022021401022001","9022021401022002"]},{"stop_id":"9021021484426000","name":"Finahuset","lat":61.724795,"lon":17.149514,"lines":["4"],"children":["9022021484426001","9022021484426002"]},{"stop_id":"9021021484086000","name":"Finflo","lat":61.759284,"lon":17.075984,"lines":["20"],"children":["9022021484086001","9022021484086002"]},{"stop_id":"9021021401018000","name":"Finnbacken","lat":60.899179,"lon":16.760056,"lines":["26","775","Kuxa 70A","Kuxa 74"],"children":["9022021401018001","9022021401018002"]},{"stop_id":"9021021480014000","name":"Finnböle","lat":60.446294,"lon":17.152082,"lines":["49"],"children":["9022021480014001","9022021480014002"]},{"stop_id":"9021021484418000","name":"Finngatan","lat":61.804942,"lon":16.553353,"lines":["20"],"children":["9022021484418001","9022021484418002"]},{"stop_id":"9021021401151000","name":"Finnstigen","lat":60.915562,"lon":16.678846,"lines":["Kuxa 74"],"children":["9022021401151001"]},{"stop_id":"9021021480138000","name":"Finntä","lat":60.665447,"lon":17.02756,"lines":["99"],"children":["9022021480138001","9022021480138002"]},{"stop_id":"9021021480345000","name":"Fiskar Normans väg","lat":60.75155,"lon":17.34755,"lines":["95","195"],"children":["9022021480345001","9022021480345002"]},{"stop_id":"9021021484167000","name":"Fiskeby","lat":61.741921,"lon":17.168335,"lines":["37"],"children":["9022021484167001","9022021484167002"]},{"stop_id":"9021021484288000","name":"Fiskebyvägen","lat":61.727681,"lon":17.135072,"lines":["3","37"],"children":["9022021484288001","9022021484288002"]},{"stop_id":"9021021421042000","name":"Fiskra","lat":61.356427,"lon":15.942278,"lines":["100","172"],"children":["9022021421042001","9022021421042002"]},{"stop_id":"9021021432108000","name":"Fiskvik","lat":62.007954,"lon":17.024124,"lines":["34"],"children":["9022021432108001","9022021432108002"]},{"stop_id":"9021021483091000","name":"Fjälevägen","lat":61.319952,"lon":16.211059,"lines":["76"],"children":["9022021483091001","9022021483091002"]},{"stop_id":"9021021480663000","name":"Fjällbackens köpcentrum","lat":60.668822,"lon":17.184741,"lines":["12","14"],"children":["9022021480663002","9022021480663003"]},{"stop_id":"9021021480263000","name":"Fjärran Höjder","lat":60.667149,"lon":17.131692,"lines":["4"],"children":["9022021480263001","9022021480263002"]},{"stop_id":"9021021401135000","name":"Flaggbacken","lat":60.900648,"lon":16.75413,"lines":["26","Kuxa 74"],"children":["9022021401135001"]},{"stop_id":"9021021480015000","name":"Flaten","lat":60.470987,"lon":17.167269,"lines":["49"],"children":["9022021480015001","9022021480015002"]},{"stop_id":"9021021480016000","name":"Flatsjön","lat":60.481539,"lon":17.16591,"lines":["49"],"children":["9022021480016001","9022021480016002"]},{"stop_id":"9021021480481000","name":"Fliskär","lat":60.679137,"lon":17.216476,"lines":["12"],"children":["9022021480481001","9022021480481002"]},{"stop_id":"9021021482265000","name":"Flisvägen","lat":61.25353,"lon":17.174521,"lines":["63"],"children":["9022021482265001","9022021482265002"]},{"stop_id":"9021021482019000","name":"Flor","lat":61.30863,"lon":16.762183,"lines":["68"],"children":["9022021482019001","9022021482019002"]},{"stop_id":"9021021481032000","name":"Florellvägen","lat":60.722816,"lon":16.586817,"lines":["43"],"children":["9022021481032001","9022021481032002"]},{"stop_id":"9021021482020000","name":"Florsjö","lat":61.303176,"lon":16.798108,"lines":["68"],"children":["9022021482020002"]},{"stop_id":"9021021482021000","name":"Florsjöbaden","lat":61.305594,"lon":16.792716,"lines":["68"],"children":["9022021482021002"]},{"stop_id":"9021021483279000","name":"Flugån","lat":61.212507,"lon":16.436324,"lines":["75"],"children":["9022021483279001","9022021483279002"]},{"stop_id":"9021021482119000","name":"Fly","lat":61.37311,"lon":16.8961,"lines":["65","67"],"children":["9022021482119001","9022021482119002"]},{"stop_id":"9021021482201000","name":"Flygbacken","lat":61.291296,"lon":17.072982,"lines":["60","100"],"children":["9022021482201001","9022021482201002"]},{"stop_id":"9021021482022000","name":"Flygfältet","lat":61.287217,"lon":16.84166,"lines":["64","68"],"children":["9022021482022001","9022021482022002"]},{"stop_id":"9021021482266000","name":"Flygstaden","lat":61.278373,"lon":17.093832,"lines":["60","100"],"children":["9022021482266001","9022021482266002"]},{"stop_id":"9021021481033000","name":"Flyktbackavägen","lat":60.606409,"lon":16.594338,"lines":["45","46","141"],"children":["9022021481033001","9022021481033002"]},{"stop_id":"9021021580134000","name":"Fläddran","lat":60.705925,"lon":15.753575,"lines":["39"],"children":["9022021580134001","9022021580134002"]},{"stop_id":"9021021484067000","name":"Fläsbro","lat":61.760337,"lon":17.122333,"lines":["29","30"],"children":["9022021484067001","9022021484067002"]},{"stop_id":"9021021483049000","name":"Flästa","lat":61.460163,"lon":16.421214,"lines":["52"],"children":["9022021483049001","9022021483049002"]},{"stop_id":"9021021483083000","name":"Flästa Öjungsvägen","lat":61.446178,"lon":16.486098,"lines":["52"],"children":["9022021483083002"]},{"stop_id":"9021021480532000","name":"Flösta","lat":60.36318,"lon":17.004963,"lines":["48","49"],"children":["9022021480532001","9022021480532002"]},{"stop_id":"9021021484202000","name":"Folkets Hus","lat":61.719983,"lon":16.974201,"lines":["21","53"],"children":["9022021484202001","9022021484202002"]},{"stop_id":"9021021484205000","name":"Folkhögskolan-Forsavägen","lat":61.727934,"lon":16.963681,"lines":["21"],"children":["9022021484205001","9022021484205002"]},{"stop_id":"9021021484206000","name":"Folkhögskolan-väg 84","lat":61.728963,"lon":16.965158,"lines":["21","53"],"children":["9022021484206001","9022021484206002"]},{"stop_id":"9021021483050000","name":"Forneby","lat":61.466271,"lon":16.41989,"lines":["52"],"children":["9022021483050001","9022021483050002"]},{"stop_id":"9021021484145000","name":"Fors","lat":61.744211,"lon":17.087156,"lines":["20","34"],"children":["9022021484145001","9022021484145002"]},{"stop_id":"9021021484144000","name":"Fors industriområde","lat":61.740526,"lon":17.087703,"lines":["34"],"children":["9022021484144001","9022021484144002"]},{"stop_id":"9021021584330000","name":"Fors station","lat":60.209087,"lon":16.313714,"lines":["TIB"],"children":["9022021584330017"]},{"stop_id":"9021021484208000","name":"Forsa kyrka","lat":61.734317,"lon":16.936522,"lines":["21","53"],"children":["9022021484208001","9022021484208002"]},{"stop_id":"9021021484102000","name":"Forsadalen","lat":61.782002,"lon":16.85682,"lines":["20"],"children":["9022021484102001","9022021484102002"]},{"stop_id":"9021021484042000","name":"Forsavägen","lat":61.640903,"lon":17.076675,"lines":["28"],"children":["9022021484042001","9022021484042002"]},{"stop_id":"9021021482168000","name":"Forsbacka","lat":61.314998,"lon":17.091264,"lines":["62"],"children":["9022021482168001","9022021482168002"]},{"stop_id":"9021021480047000","name":"Forsbacka Ringvägen","lat":60.618752,"lon":16.885865,"lines":["91"],"children":["9022021480047001","9022021480047002"]},{"stop_id":"9021021480017000","name":"Forsbacka centrum","lat":60.613907,"lon":16.892278,"lines":["91"],"children":["9022021480017001","9022021480017002"]},{"stop_id":"9021021482169000","name":"Forsbacka västra","lat":61.319879,"lon":17.083808,"lines":["62"],"children":["9022021482169001","9022021482169002"]},{"stop_id":"9021021482397000","name":"Forsbackabron","lat":61.316277,"lon":17.086947,"lines":["62"],"children":["9022021482397001","9022021482397002"]},{"stop_id":"9021021483051000","name":"Forsbro","lat":61.475185,"lon":16.394847,"lines":["52"],"children":["9022021483051001","9022021483051002"]},{"stop_id":"9021021482120000","name":"Forsgården","lat":61.3659,"lon":16.944635,"lines":["65","67"],"children":["9022021482120001","9022021482120002"]},{"stop_id":"9021021461280000","name":"Forsnäsetvägen","lat":61.827598,"lon":16.036664,"lines":["82"],"children":["9022021461280001","9022021461280002"]},{"stop_id":"9021021483375000","name":"Framnäs väg 83","lat":61.370174,"lon":16.392107,"lines":["22","51","52","55"],"children":["9022021483375001","9022021483375002"]},{"stop_id":"9021021401043000","name":"Franks","lat":60.949559,"lon":16.492568,"lines":["Kuxa 71"],"children":["9022021401043001","9022021401043002"]},{"stop_id":"9021021484226000","name":"Fredriksfors","lat":61.786311,"lon":16.616904,"lines":["53"],"children":["9022021484226001","9022021484226002"]},{"stop_id":"9021021483092000","name":"Freluga","lat":61.326905,"lon":16.298413,"lines":["76"],"children":["9022021483092001","9022021483092002"]},{"stop_id":"9021021483088000","name":"Freluga gård","lat":61.325425,"lon":16.290733,"lines":["76"],"children":["9022021483088001","9022021483088002"]},{"stop_id":"9021021401044000","name":"Fridhem","lat":60.942345,"lon":16.508003,"lines":["Kuxa 71"],"children":["9022021401044001","9022021401044002"]},{"stop_id":"9021021480265000","name":"Fridhem","lat":60.658468,"lon":17.127294,"lines":["4"],"children":["9022021480265001","9022021480265002"]},{"stop_id":"9021021482170000","name":"Fridsbacka","lat":61.311664,"lon":17.104941,"lines":["62"],"children":["9022021482170001","9022021482170002"]},{"stop_id":"9021021484137000","name":"Friggesund","lat":61.897927,"lon":16.546526,"lines":["20"],"children":["9022021484137001","9022021484137002"]},{"stop_id":"9021021484141000","name":"Friggesunds skola","lat":61.897713,"lon":16.554415,"lines":["20"],"children":["9022021484141001"]},{"stop_id":"9021021481035000","name":"Frimodigs","lat":60.689747,"lon":16.641148,"lines":["43"],"children":["9022021481035001","9022021481035002"]},{"stop_id":"9021021482344000","name":"Fritidsbanken","lat":61.305013,"lon":17.063009,"lines":["3"],"children":["9022021482344002"]},{"stop_id":"9021021483395000","name":"Frivyvägen","lat":61.229724,"lon":16.561979,"lines":["75"],"children":["9022021483395001","9022021483395002"]},{"stop_id":"9021021483294000","name":"Fromskroken","lat":61.352354,"lon":16.583381,"lines":["78","100","172"],"children":["9022021483294001","9022021483294002","9022021483294003"]},{"stop_id":"9021021480146000","name":"Fruns hage","lat":60.668454,"lon":17.155601,"lines":["12","95"],"children":["9022021480146001","9022021480146002"]},{"stop_id":"9021021480147000","name":"Frälsningsarmén","lat":60.917461,"lon":17.032859,"lines":["25"],"children":["9022021480147001","9022021480147002"]},{"stop_id":"9021021480515000","name":"Främlingshem","lat":60.501148,"lon":16.938477,"lines":["48"],"children":["9022021480515001","9022021480515002"]},{"stop_id":"9021021432070000","name":"Frästa","lat":62.04894,"lon":17.234762,"lines":["33"],"children":["9022021432070001","9022021432070002"]},{"stop_id":"9021021484212000","name":"Funsta","lat":61.739901,"lon":16.896302,"lines":["21","53"],"children":["9022021484212001","9022021484212002"]},{"stop_id":"9021021461013000","name":"Furugatan","lat":61.825619,"lon":16.128267,"lines":["53","58"],"children":["9022021461013001","9022021461013002"]},{"stop_id":"9021021404022000","name":"Furulund","lat":60.541803,"lon":16.247455,"lines":["241"],"children":["9022021404022001","9022021404022002"]},{"stop_id":"9021021484143000","name":"Furulund","lat":61.735495,"lon":17.09495,"lines":["21","34"],"children":["9022021484143001","9022021484143002"]},{"stop_id":"9021021480149000","name":"Furumovägen","lat":60.69705,"lon":17.145978,"lines":["3"],"children":["9022021480149001","9022021480149002"]},{"stop_id":"9021021480152000","name":"Fyrbovägen","lat":60.677433,"lon":17.090467,"lines":["4","99"],"children":["9022021480152001","9022021480152002"]},{"stop_id":"9021021461036000","name":"Fyrs","lat":61.90107,"lon":15.898311,"lines":["54"],"children":["9022021461036001","9022021461036002"]},{"stop_id":"9021021480519000","name":"Fäbodsjön","lat":60.451287,"lon":16.959346,"lines":["48"],"children":["9022021480519001","9022021480519002"]},{"stop_id":"9021021483210000","name":"Fällene","lat":61.308499,"lon":16.456521,"lines":["70"],"children":["9022021483210001","9022021483210002"]},{"stop_id":"9021021482376000","name":"Färghuset","lat":61.301393,"lon":17.036907,"lines":["61","150","172"],"children":["9022021482376001","9022021482376002"]},{"stop_id":"9021021461058000","name":"Färila","lat":61.798256,"lon":15.83868,"lines":["82"],"children":["9022021461058001","9022021461058002"]},{"stop_id":"9021021461211000","name":"Färila Hälsocentral","lat":61.797132,"lon":15.845732,"lines":["53"],"children":["9022021461211001"]},{"stop_id":"9021021461054000","name":"Färila idrottspark","lat":61.800442,"lon":15.889345,"lines":["82"],"children":["9022021461054001"]},{"stop_id":"9021021461056000","name":"Färila kyrka","lat":61.801404,"lon":15.846514,"lines":["82"],"children":["9022021461056001","9022021461056002"]},{"stop_id":"9021021461193000","name":"Färjestadsvägen","lat":61.921991,"lon":15.875531,"lines":["54"],"children":["9022021461193001","9022021461193002"]},{"stop_id":"9021021483211000","name":"Fäsjön","lat":61.251128,"lon":16.598076,"lines":["77"],"children":["9022021483211001","9022021483211002"]},{"stop_id":"9021021482202000","name":"Fålnäs","lat":61.306831,"lon":17.089306,"lines":["1","63"],"children":["9022021482202001","9022021482202002"]},{"stop_id":"9021021401120000","name":"Föreningshuset","lat":60.961981,"lon":16.458038,"lines":["Kuxa 71"],"children":["9022021401120001","9022021401120002"]},{"stop_id":"9021021480482000","name":"Föreningshuset","lat":60.685436,"lon":17.238698,"lines":["12"],"children":["9022021480482001","9022021480482002"]},{"stop_id":"9021021480155000","name":"Gamla Bönavägen","lat":60.704354,"lon":17.160512,"lines":["11","195"],"children":["9022021480155001","9022021480155002"]},{"stop_id":"9021021480157000","name":"Gamla Ockelbovägen","lat":60.914137,"lon":17.034151,"lines":["25"],"children":["9022021480157001","9022021480157002"]},{"stop_id":"9021021483272000","name":"Gamla Sibovägen","lat":61.215155,"lon":16.603369,"lines":["70","75"],"children":["9022021483272002"]},{"stop_id":"9021021401045000","name":"Gamla apoteket","lat":60.896404,"lon":16.720235,"lines":["26","44","775","Kuxa 70A","Kuxa 70K","Kuxa 74"],"children":["9022021401045001","9022021401045002"]},{"stop_id":"9021021580055000","name":"Gamla brandstationen Enviken","lat":60.804296,"lon":15.755416,"lines":["39"],"children":["9022021580055001","9022021580055002"]},{"stop_id":"9021021482205000","name":"Gamla idrottsplatsen","lat":61.305676,"lon":17.04846,"lines":["3","61"],"children":["9022021482205001","9022021482205002"]},{"stop_id":"9021021421112000","name":"Gammel-Homna","lat":61.347421,"lon":15.674019,"lines":["83"],"children":["9022021421112001","9022021421112002"]},{"stop_id":"9021021483212000","name":"Gammel-Leeks","lat":61.276533,"lon":16.603004,"lines":["77"],"children":["9022021483212001","9022021483212002"]},{"stop_id":"9021021401046000","name":"Gammelboning","lat":60.82433,"lon":16.470272,"lines":["Kuxa 72"],"children":["9022021401046002"]},{"stop_id":"9021021401133000","name":"Gammelboning","lat":60.82867,"lon":16.495915,"lines":["43"],"children":["9022021401133002"]},{"stop_id":"9021021481038000","name":"Gammelhammarvägen","lat":60.632843,"lon":16.566059,"lines":["42"],"children":["9022021481038001","9022021481038002"]},{"stop_id":"9021021480158000","name":"Gammelstigen","lat":60.698766,"lon":17.167144,"lines":["95","195"],"children":["9022021480158001","9022021480158002"]},{"stop_id":"9021021481218000","name":"Gammelstillavägen","lat":60.427025,"lon":16.691906,"lines":["47"],"children":["9022021481218001","9022021481218002"]},{"stop_id":"9021021482378000","name":"Gammelsågen","lat":61.246371,"lon":17.152637,"lines":["60","63"],"children":["9022021482378001","9022021482378002"]},{"stop_id":"9021021482267000","name":"Gammelsågen södra","lat":61.243527,"lon":17.149796,"lines":["63"],"children":["9022021482267001","9022021482267002"]},{"stop_id":"9021021401047000","name":"Gammelåsen","lat":60.952425,"lon":16.484971,"lines":["Kuxa 71"],"children":["9022021401047001","9022021401047002"]},{"stop_id":"9021021432055000","name":"Gammsätter","lat":62.026371,"lon":17.090271,"lines":["33"],"children":["9022021432055001","9022021432055002"]},{"stop_id":"9021021461221000","name":"Garvarbäcken","lat":61.631091,"lon":16.288226,"lines":["57"],"children":["9022021461221001"]},{"stop_id":"9021021483352000","name":"Garvars","lat":61.388513,"lon":16.403452,"lines":["78"],"children":["9022021483352002"]},{"stop_id":"9021021480678000","name":"Gasklockorna","lat":60.677936,"lon":17.177409,"lines":["14"],"children":["9022021480678001","9022021480678002","9022021480678016","9022021480678030"]},{"stop_id":"9021021481039000","name":"Gavelhyttan","lat":60.556508,"lon":16.597098,"lines":["45"],"children":["9022021481039001","9022021481039002"]},{"stop_id":"9021021481040000","name":"Gavelstigen","lat":60.515679,"lon":16.736308,"lines":["47"],"children":["9022021481040001","9022021481040002"]},{"stop_id":"9021021480160000","name":"Gavlehov","lat":60.691433,"lon":17.135822,"lines":["3","195"],"children":["9022021480160001","9022021480160002"]},{"stop_id":"9021021480081000","name":"Gefle Forum","lat":60.659241,"lon":17.134495,"lines":["2","49"],"children":["9022021480081001","9022021480081002"]},{"stop_id":"9021021480033000","name":"Geodetgatan","lat":60.640912,"lon":17.145219,"lines":["4"],"children":["9022021480033001","9022021480033002"]},{"stop_id":"9021021482368000","name":"Getbacken","lat":61.31921,"lon":16.777554,"lines":["100","172"],"children":["9022021482368001","9022021482368002"]},{"stop_id":"9021021484156000","name":"Gia","lat":61.797112,"lon":17.029403,"lines":["34"],"children":["9022021484156001","9022021484156002"]},{"stop_id":"9021021481318000","name":"Gillerhedsvägen","lat":60.508083,"lon":16.803821,"lines":["47"],"children":["9022021481318001","9022021481318002"]},{"stop_id":"9021021480020000","name":"Glamsen","lat":60.571658,"lon":17.128547,"lines":["49"],"children":["9022021480020001","9022021480020002"]},{"stop_id":"9021021482121000","name":"Glamsta","lat":61.39356,"lon":16.84368,"lines":["65","67"],"children":["9022021482121001","9022021482121002"]},{"stop_id":"9021021481043000","name":"Gläntan","lat":60.704576,"lon":16.812009,"lines":["44"],"children":["9022021481043001","9022021481043002"]},{"stop_id":"9021021483297000","name":"Glössbo","lat":61.351068,"lon":16.700568,"lines":["100","172"],"children":["9022021483297001","9022021483297002"]},{"stop_id":"9021021432022000","name":"Gnarp Vallen","lat":62.054665,"lon":17.24092,"lines":["29","30","32","33"],"children":["9022021432022001","9022021432022002","9022021432022003","9022021432022004"]},{"stop_id":"9021021432161000","name":"Gnarp skola","lat":62.052922,"lon":17.242005,"lines":["32","33"],"children":["9022021432161001","9022021432161002"]},{"stop_id":"9021021432131000","name":"Gnarp station","lat":62.055433,"lon":17.246445,"lines":["29","30","32","33","301","SJ-Tåg","X-tåg"],"children":["9022021432131001","9022021432131002","9022021432131003","9022021432131017","9022021432131024"]},{"stop_id":"9021021432016000","name":"Gnarps kyrka","lat":62.046646,"lon":17.25597,"lines":["29","30","32"],"children":["9022021432016001","9022021432016002"]},{"stop_id":"9021021401048000","name":"Gnupen","lat":60.930633,"lon":16.546473,"lines":["Kuxa 71"],"children":["9022021401048001","9022021401048002"]},{"stop_id":"9021021401132000","name":"Gnupen V","lat":60.931855,"lon":16.542979,"lines":["Kuxa 71"],"children":["9022021401132001"]},{"stop_id":"9021021480661000","name":"Godisfabriken","lat":60.677723,"lon":17.165743,"lines":["14"],"children":["9022021480661001","9022021480661002"]},{"stop_id":"9021021480162000","name":"Golfbanan","lat":60.699369,"lon":17.178449,"lines":["95","195"],"children":["9022021480162001","9022021480162002"]},{"stop_id":"9021021480638000","name":"Grafikergatan","lat":60.641879,"lon":17.150889,"lines":["14"],"children":["9022021480638001","9022021480638002"]},{"stop_id":"9021021401049000","name":"Gramre","lat":60.829718,"lon":16.697649,"lines":["44"],"children":["9022021401049001","9022021401049002"]},{"stop_id":"9021021483135000","name":"Granberg","lat":61.331259,"lon":16.386841,"lines":["3","75"],"children":["9022021483135001","9022021483135002"]},{"stop_id":"9021021483133000","name":"Granbergsbacken","lat":61.333395,"lon":16.390915,"lines":["3","75"],"children":["9022021483133001","9022021483133002"]},{"stop_id":"9021021483388000","name":"Granbergshöjden","lat":61.330557,"lon":16.387295,"lines":["3"],"children":["9022021483388001"]},{"stop_id":"9021021483394000","name":"Granbergsskolan","lat":61.333922,"lon":16.382987,"lines":["75","76"],"children":["9022021483394001"]},{"stop_id":"9021021483214000","name":"Granbo","lat":61.275067,"lon":16.52647,"lines":["70"],"children":["9022021483214001","9022021483214002"]},{"stop_id":"9021021580345000","name":"Grand hotell Falun","lat":60.606662,"lon":15.634012,"lines":["39","241"],"children":["9022021580345001","9022021580345002"]},{"stop_id":"9021021480483000","name":"Graneberg","lat":60.673432,"lon":17.266397,"lines":["1"],"children":["9022021480483001","9022021480483002"]},{"stop_id":"9021021482398000","name":"Granskär","lat":61.309901,"lon":17.073023,"lines":["62"],"children":["9022021482398001","9022021482398002"]},{"stop_id":"9021021480484000","name":"Granudden","lat":60.684085,"lon":17.234043,"lines":["12"],"children":["9022021480484001","9022021480484002"]},{"stop_id":"9021021480164000","name":"Granvik","lat":60.716641,"lon":17.256649,"lines":["95","195"],"children":["9022021480164001","9022021480164002"]},{"stop_id":"9021021484024000","name":"Grimbo","lat":61.535309,"lon":16.97606,"lines":["28"],"children":["9022021484024001","9022021484024002"]},{"stop_id":"9021021404114000","name":"Grindberget","lat":60.510863,"lon":16.420707,"lines":["46"],"children":["9022021404114001","9022021404114002"]},{"stop_id":"9021021461252000","name":"Grophamre","lat":61.848588,"lon":15.987409,"lines":["54"],"children":["9022021461252001"]},{"stop_id":"9021021480168000","name":"Grubban","lat":60.74712,"lon":17.325183,"lines":["95","195"],"children":["9022021480168001","9022021480168002"]},{"stop_id":"9021021482123000","name":"Grubbe","lat":61.445214,"lon":16.725364,"lines":["65","67"],"children":["9022021482123002"]},{"stop_id":"9021021482206000","name":"Grundvik","lat":61.295643,"lon":17.118962,"lines":["63"],"children":["9022021482206001","9022021482206002"]},{"stop_id":"9021021481044000","name":"Grusåsgatan","lat":60.609583,"lon":16.743683,"lines":["43"],"children":["9022021481044001"]},{"stop_id":"9021021432025000","name":"Gryttje","lat":62.067959,"lon":17.284113,"lines":["32"],"children":["9022021432025001"]},{"stop_id":"9021021484243000","name":"Gryttjen","lat":61.802371,"lon":16.299933,"lines":["53"],"children":["9022021484243001","9022021484243002"]},{"stop_id":"9021021461002000","name":"Gryttjesbo","lat":61.805059,"lon":16.270222,"lines":["53"],"children":["9022021461002001","9022021461002002"]},{"stop_id":"9021021432020000","name":"Gräftgränd","lat":62.052271,"lon":17.244154,"lines":["29","30","32"],"children":["9022021432020001","9022021432020002"]},{"stop_id":"9021021432060000","name":"Grängsjö","lat":62.042685,"lon":17.119056,"lines":["33"],"children":["9022021432060001","9022021432060002"]},{"stop_id":"9021021432057000","name":"Gränsfors","lat":62.033892,"lon":17.098805,"lines":["33"],"children":["9022021432057001","9022021432057002"]},{"stop_id":"9021021480172000","name":"Gräsharen","lat":60.892551,"lon":17.108593,"lines":["25"],"children":["9022021480172001","9022021480172002"]},{"stop_id":"9021021421111000","name":"Gräsheden","lat":61.360792,"lon":15.719352,"lines":["83"],"children":["9022021421111001","9022021421111002"]},{"stop_id":"9021021484290000","name":"Gräsmaln","lat":61.724701,"lon":17.159952,"lines":["4"],"children":["9022021484290001","9022021484290002"]},{"stop_id":"9021021482392000","name":"Gräsuddsvägen","lat":61.301127,"lon":17.101221,"lines":["1"],"children":["9022021482392002"]},{"stop_id":"9021021580206000","name":"Gråsala","lat":60.718596,"lon":15.778543,"lines":["39"],"children":["9022021580206001","9022021580206002"]},{"stop_id":"9021021480170000","name":"Gråsten","lat":60.761363,"lon":17.326132,"lines":["95","195"],"children":["9022021480170001","9022021480170002"]},{"stop_id":"9021021480171000","name":"Gråstensvägen","lat":60.692331,"lon":17.123081,"lines":["15","195"],"children":["9022021480171001","9022021480171002"]},{"stop_id":"9021021480021000","name":"Grååsen","lat":60.529905,"lon":17.142564,"lines":["49"],"children":["9022021480021001","9022021480021002"]},{"stop_id":"9021021401050000","name":"Grönberg","lat":60.881908,"lon":16.68673,"lines":["775"],"children":["9022021401050001"]},{"stop_id":"9021021480173000","name":"Gröndal","lat":60.720063,"lon":17.26144,"lines":["95","195"],"children":["9022021480173001","9022021480173002"]},{"stop_id":"9021021480353000","name":"Gröndalstäkten","lat":60.722627,"lon":17.265019,"lines":["95","195"],"children":["9022021480353001","9022021480353002"]},{"stop_id":"9021021483093000","name":"Grönstavägen","lat":61.318276,"lon":16.221996,"lines":["76"],"children":["9022021483093001","9022021483093002"]},{"stop_id":"9021021432112000","name":"Gröntuvan","lat":62.004401,"lon":16.983684,"lines":["34"],"children":["9022021432112001","9022021432112002"]},{"stop_id":"9021021401005000","name":"Grönviken","lat":61.018299,"lon":16.682683,"lines":["Kuxa 70K"],"children":["9022021401005001","9022021401005002"]},{"stop_id":"9021021483271000","name":"Gubberg","lat":61.285991,"lon":16.514076,"lines":["70"],"children":["9022021483271001","9022021483271002"]},{"stop_id":"9021021480022000","name":"Guldsmeden","lat":60.655758,"lon":17.048405,"lines":["1"],"children":["9022021480022001","9022021480022002"]},{"stop_id":"9021021484436000","name":"Guldsmeden","lat":61.72843,"lon":17.105704,"lines":["3"],"children":["9022021484436001"]},{"stop_id":"9021021481374000","name":"Gullhedsskolan","lat":60.715941,"lon":16.591303,"lines":["43"],"children":["9022021481374001"]},{"stop_id":"9021021421123000","name":"Gundbo","lat":61.362712,"lon":16.049204,"lines":["80"],"children":["9022021421123001","9022021421123002"]},{"stop_id":"9021021481357000","name":"Gunnarudden","lat":60.599195,"lon":16.773099,"lines":["2"],"children":["9022021481357001"]},{"stop_id":"9021021480176000","name":"Gustavsbro","lat":60.674451,"lon":17.108371,"lines":["1","26","41","48","91","150","151","173","241"],"children":["9022021480176001","9022021480176002"]},{"stop_id":"9021021481045000","name":"Gyltan","lat":60.565783,"lon":16.488923,"lines":["46"],"children":["9022021481045001","9022021481045002"]},{"stop_id":"9021021481269000","name":"Gysinge brukshandel","lat":60.289729,"lon":16.885505,"lines":["47","48","49"],"children":["9022021481269001","9022021481269002"]},{"stop_id":"9021021481046000","name":"Gysingestigen","lat":60.298648,"lon":16.820907,"lines":["47","49"],"children":["9022021481046001","9022021481046002"]},{"stop_id":"9021021421043000","name":"Gäddvik","lat":61.373973,"lon":16.145944,"lines":["80"],"children":["9022021421043001","9022021421043002"]},{"stop_id":"9021021432049000","name":"Gällsta Livs","lat":62.039829,"lon":17.316023,"lines":["32"],"children":["9022021432049002"]},{"stop_id":"9021021432047000","name":"Gällsta västra","lat":62.042601,"lon":17.282041,"lines":["32"],"children":["9022021432047002"]},{"stop_id":"9021021432050000","name":"Gällsta östra","lat":62.038269,"lon":17.325693,"lines":["32"],"children":["9022021432050002"]},{"stop_id":"9021021483176000","name":"Gärdet","lat":61.353589,"lon":16.388171,"lines":["1"],"children":["9022021483176001","9022021483176002"]},{"stop_id":"9021021461110000","name":"Gärdeåsen","lat":61.83271,"lon":16.115605,"lines":["53","54","82"],"children":["9022021461110001","9022021461110002"]},{"stop_id":"9021021461215000","name":"Gärdeåsskolan","lat":61.833486,"lon":16.105667,"lines":["54","58","82"],"children":["9022021461215001"]},{"stop_id":"9021021461111000","name":"Gärdeåsvägen","lat":61.833662,"lon":16.107016,"lines":["53","54","82"],"children":["9022021461111001","9022021461111002"]},{"stop_id":"9021021484414000","name":"Gärdsänget","lat":61.761663,"lon":16.941805,"lines":["20"],"children":["9022021484414001","9022021484414002"]},{"stop_id":"9021021481047000","name":"Gästrike Hammarby","lat":60.54328,"lon":16.572048,"lines":["45"],"children":["9022021481047001"]},{"stop_id":"9021021401051000","name":"Gäveränge","lat":60.898256,"lon":16.727658,"lines":["26","44","Kuxa 74"],"children":["9022021401051001","9022021401051002"]},{"stop_id":"9021021401148000","name":"Gäverängeskolan","lat":60.894177,"lon":16.727006,"lines":["Kuxa 70A","Kuxa 70K","Kuxa 72","Kuxa 73","Kuxa 74"],"children":["9022021401148001"]},{"stop_id":"9021021480179000","name":"Gävle Bro","lat":60.646077,"lon":17.127701,"lines":["49"],"children":["9022021480179001","9022021480179002"]},{"stop_id":"9021021480119000","name":"Gävle Central","lat":60.67604,"lon":17.151052,"lines":["1","15","25","26","41","48","49","91","95","151","173","195","241","300","301","SJ-Tåg","TIB","X-tåg"],"children":["9022021480119001","9022021480119003","9022021480119007","9022021480119017","9022021480119019","9022021480119022","9022021480119024","9022021480119025","9022021480119026","9022021480119030","9022021480119041","9022021480119042","9022021480119043","9022021480119044","9022021480119045","9022021480119046","9022021480119047","9022021480119048","9022021480119049"]},{"stop_id":"9021021480143000","name":"Gävle Forsby","lat":60.713946,"lon":17.142926,"lines":["11"],"children":["9022021480143001","9022021480143002"]},{"stop_id":"9021021480153000","name":"Gävle Fältspatvägen","lat":60.685947,"lon":17.107628,"lines":["12"],"children":["9022021480153001","9022021480153002"]},{"stop_id":"9021021480687000","name":"Gävle Hamn","lat":60.697015,"lon":17.201237,"lines":["95","195"],"children":["9022021480687001","9022021480687002"]},{"stop_id":"9021021480030000","name":"Gävle Hjälpmedel SAM","lat":60.668733,"lon":17.083224,"lines":["1"],"children":["9022021480030001","9022021480030002"]},{"stop_id":"9021021480206000","name":"Gävle Hövdingavägen","lat":60.664861,"lon":17.228711,"lines":["3","12"],"children":["9022021480206001","9022021480206002"]},{"stop_id":"9021021480334000","name":"Gävle Rådhuset","lat":60.675073,"lon":17.144534,"lines":["1","2","3","4","11","12","14","15","25","26","41","48","49","91","95","99","150","241"],"children":["9022021480334001","9022021480334002","9022021480334003","9022021480334004","9022021480334005","9022021480334006","9022021480334007","9022021480334008","9022021480334009","9022021480334010","9022021480334011","9022021480334012","9022021480334013","9022021480334014","9022021480334016","9022021480334018","9022021480334019"]},{"stop_id":"9021021480049000","name":"Gävle Scandic","lat":60.671584,"lon":17.089264,"lines":["1"],"children":["9022021480049001","9022021480049002"]},{"stop_id":"9021021480350000","name":"Gävle Sjukhus Västra vägen","lat":60.675664,"lon":17.121979,"lines":["1","2","4","26","41","48","91","150","151","173","241"],"children":["9022021480350001","9022021480350002"]},{"stop_id":"9021021480358000","name":"Gävle Skuggan","lat":60.670929,"lon":17.05885,"lines":["4","99"],"children":["9022021480358001","9022021480358002"]},{"stop_id":"9021021480694000","name":"Gävle Strand","lat":60.678856,"lon":17.161948,"lines":["14","15"],"children":["9022021480694001","9022021480694002"]},{"stop_id":"9021021480342000","name":"Gävle Södra Bjuräng","lat":60.721753,"lon":17.128609,"lines":["11"],"children":["9022021480342001","9022021480342002"]},{"stop_id":"9021021480645000","name":"Gävle sjukhus","lat":60.677826,"lon":17.120365,"lines":["2","4","15","99","195"],"children":["9022021480645003","9022021480645004","9022021480645014","9022021480645030"]},{"stop_id":"9021021480282000","name":"Gävle sjukhus ingång 25","lat":60.678842,"lon":17.12015,"lines":["150","173"],"children":["9022021480282001","9022021480282007"]},{"stop_id":"9021021480211000","name":"Gävle sjukhus ingång 31","lat":60.680323,"lon":17.118344,"lines":["4","99"],"children":["9022021480211008","9022021480211010"]},{"stop_id":"9021021483299000","name":"Gåsjön","lat":61.350213,"lon":16.613528,"lines":["100","172"],"children":["9022021483299001","9022021483299002"]},{"stop_id":"9021021404023000","name":"Göklund","lat":60.544505,"lon":16.271216,"lines":["46"],"children":["9022021404023001","9022021404023002"]},{"stop_id":"9021021481330000","name":"Göransson Arena","lat":60.607385,"lon":16.76887,"lines":["2","47"],"children":["9022021481330001","9022021481330002"]},{"stop_id":"9021021483300000","name":"Görtsberg","lat":61.356983,"lon":16.588355,"lines":["78"],"children":["9022021483300001","9022021483300002"]},{"stop_id":"9021021483216000","name":"Görtsbo","lat":61.297483,"lon":16.398587,"lines":["75"],"children":["9022021483216001","9022021483216002"]},{"stop_id":"9021021432169000","name":"Haddtjärn","lat":62.062909,"lon":17.350317,"lines":["32"],"children":["9022021432169001"]},{"stop_id":"9021021432173000","name":"Haddäng","lat":62.064156,"lon":17.35918,"lines":["32"],"children":["9022021432173001"]},{"stop_id":"9021021421044000","name":"Haga","lat":61.360998,"lon":15.929399,"lines":["100","172"],"children":["9022021421044001","9022021421044002"]},{"stop_id":"9021021483053000","name":"Haga","lat":61.497811,"lon":16.364237,"lines":["22","51","55"],"children":["9022021483053001","9022021483053002"]},{"stop_id":"9021021482124000","name":"Hagaborg","lat":61.332904,"lon":17.045764,"lines":["67"],"children":["9022021482124001","9022021482124002"]},{"stop_id":"9021021484181000","name":"Hagafjärden","lat":61.721166,"lon":17.322694,"lines":["37"],"children":["9022021484181001","9022021484181002"]},{"stop_id":"9021021401006000","name":"Hagalundsvägen","lat":61.036798,"lon":16.685118,"lines":["Kuxa 70K"],"children":["9022021401006001","9022021401006002"]},{"stop_id":"9021021404024000","name":"Hagaskolan","lat":60.54075,"lon":16.29237,"lines":["46"],"children":["9022021404024001","9022021404024002"]},{"stop_id":"9021021480182000","name":"Hagaström","lat":60.670789,"lon":17.072822,"lines":["4","99"],"children":["9022021480182001","9022021480182002"]},{"stop_id":"9021021480444000","name":"Hagaström vattentornet","lat":60.669748,"lon":17.04201,"lines":["99"],"children":["9022021480444001","9022021480444002"]},{"stop_id":"9021021480183000","name":"Hagaströms skola","lat":60.673205,"lon":17.067886,"lines":["4","99"],"children":["9022021480183001","9022021480183002"]},{"stop_id":"9021021481048000","name":"Hagavägen","lat":60.54306,"lon":16.566686,"lines":["45"],"children":["9022021481048001","9022021481048002"]},{"stop_id":"9021021480705000","name":"Hagelgatan","lat":60.655069,"lon":17.148623,"lines":["14"],"children":["9022021480705001","9022021480705002"]},{"stop_id":"9021021432144000","name":"Haglocket","lat":62.004415,"lon":16.975725,"lines":["34"],"children":["9022021432144001","9022021432144002"]},{"stop_id":"9021021483006000","name":"Hagmora","lat":61.566978,"lon":16.433282,"lines":["22"],"children":["9022021483006001","9022021483006002"]},{"stop_id":"9021021481049000","name":"Hagmuren","lat":60.657395,"lon":16.440831,"lines":["42"],"children":["9022021481049001","9022021481049002"]},{"stop_id":"9021021484068000","name":"Hagmyren","lat":61.767925,"lon":17.124722,"lines":["29","30"],"children":["9022021484068001","9022021484068002"]},{"stop_id":"9021021480184000","name":"Hagsta","lat":60.910476,"lon":17.034987,"lines":["25"],"children":["9022021480184001","9022021480184002"]},{"stop_id":"9021021480004000","name":"Hagsta krog","lat":60.901834,"lon":17.013021,"lines":["26"],"children":["9022021480004001","9022021480004002"]},{"stop_id":"9021021482025000","name":"Hagstigen","lat":61.264584,"lon":16.793387,"lines":["68"],"children":["9022021482025001","9022021482025002"]},{"stop_id":"9021021481320000","name":"Hagängs","lat":60.503776,"lon":16.781849,"lines":["47"],"children":["9022021481320001","9022021481320002"]},{"stop_id":"9021021483217000","name":"Hallen","lat":61.214866,"lon":16.541786,"lines":["75"],"children":["9022021483217001","9022021483217002"]},{"stop_id":"9021021480636000","name":"Hallonpasset","lat":60.69265,"lon":17.101363,"lines":["2"],"children":["9022021480636001","9022021480636002"]},{"stop_id":"9021021483137000","name":"Hallonvägen","lat":61.363278,"lon":16.38061,"lines":["1"],"children":["9022021483137001"]},{"stop_id":"9021021432140000","name":"Halls","lat":62.087702,"lon":16.785063,"lines":["34"],"children":["9022021432140001","9022021432140002"]},{"stop_id":"9021021484346000","name":"Hallstaåsvägen","lat":61.757477,"lon":17.106057,"lines":["30","34"],"children":["9022021484346002"]},{"stop_id":"9021021481050000","name":"Halvägsbacka","lat":60.380722,"lon":16.75155,"lines":["47"],"children":["9022021481050001","9022021481050002"]},{"stop_id":"9021021481052000","name":"Hammarbyvägen","lat":60.579849,"lon":16.526159,"lines":["45","46","141"],"children":["9022021481052001","9022021481052002"]},{"stop_id":"9021021483377000","name":"Hammaren","lat":61.223989,"lon":16.557132,"lines":["75"],"children":["9022021483377001","9022021483377002"]},{"stop_id":"9021021480185000","name":"Hammargatan","lat":60.67639,"lon":17.178459,"lines":["14"],"children":["9022021480185001","9022021480185002"]},{"stop_id":"9021021401052000","name":"Hammarsjön","lat":60.846518,"lon":16.706045,"lines":["44"],"children":["9022021401052001","9022021401052002"]},{"stop_id":"9021021484234000","name":"Hammarsvall","lat":61.797588,"lon":16.502912,"lines":["53"],"children":["9022021484234001","9022021484234002"]},{"stop_id":"9021021482026000","name":"Hammarvägen","lat":61.278436,"lon":16.973727,"lines":["61","68"],"children":["9022021482026001","9022021482026002"]},{"stop_id":"9021021461081000","name":"Hammergård","lat":61.807762,"lon":15.736108,"lines":["82"],"children":["9022021461081001","9022021461081002"]},{"stop_id":"9021021484294000","name":"Hamnplan","lat":61.726981,"lon":17.119321,"lines":["3","37"],"children":["9022021484294001","9022021484294002"]},{"stop_id":"9021021432106000","name":"Hamre","lat":61.99845,"lon":17.033364,"lines":["34"],"children":["9022021432106001","9022021432106002"]},{"stop_id":"9021021482125000","name":"Hamre","lat":61.355499,"lon":16.999009,"lines":["67"],"children":["9022021482125001","9022021482125002"]},{"stop_id":"9021021483373000","name":"Hamre","lat":61.527847,"lon":16.363986,"lines":["22","51","55"],"children":["9022021483373001","9022021483373002"]},{"stop_id":"9021021484101000","name":"Hamreberget","lat":61.767858,"lon":16.878936,"lines":["20"],"children":["9022021484101001","9022021484101002"]},{"stop_id":"9021021480186000","name":"Hamrångefjärden","lat":60.897854,"lon":17.069232,"lines":["25"],"children":["9022021480186001","9022021480186002"]},{"stop_id":"9021021484110000","name":"Hamréns","lat":61.822791,"lon":16.784795,"lines":["20"],"children":["9022021484110001","9022021484110002"]},{"stop_id":"9021021481054000","name":"Hamsas","lat":60.679386,"lon":16.662985,"lines":["43"],"children":["9022021481054001","9022021481054002"]},{"stop_id":"9021021401053000","name":"Handlarn","lat":60.895837,"lon":16.763015,"lines":["775"],"children":["9022021401053001"]},{"stop_id":"9021021483218000","name":"Hanebo kyrkväg","lat":61.251033,"lon":16.553176,"lines":["77"],"children":["9022021483218001","9022021483218002"]},{"stop_id":"9021021483219000","name":"Haneborg","lat":61.228537,"lon":16.570421,"lines":["70","75","77"],"children":["9022021483219001","9022021483219002"]},{"stop_id":"9021021482365000","name":"Hangarvägen","lat":61.270617,"lon":17.094987,"lines":["100"],"children":["9022021482365001"]},{"stop_id":"9021021483054000","name":"Hanks","lat":61.448907,"lon":16.445176,"lines":["52"],"children":["9022021483054001","9022021483054002"]},{"stop_id":"9021021483007000","name":"Hans-Ers","lat":61.630389,"lon":16.291176,"lines":["55","57"],"children":["9022021483007001","9022021483007002"]},{"stop_id":"9021021404025000","name":"Hantverkarn","lat":60.547313,"lon":16.28425,"lines":["46"],"children":["9022021404025001","9022021404025002"]},{"stop_id":"9021021461112000","name":"Hantverksgården","lat":61.827628,"lon":16.100638,"lines":["19","58"],"children":["9022021461112002"]},{"stop_id":"9021021480026000","name":"Hanåsen","lat":60.581676,"lon":17.130288,"lines":["49"],"children":["9022021480026001","9022021480026002"]},{"stop_id":"9021021480187000","name":"Harkskär","lat":60.7669,"lon":17.32388,"lines":["95","195"],"children":["9022021480187002"]},{"stop_id":"9021021432003000","name":"Harmånger kyrka","lat":61.927159,"lon":17.22058,"lines":["29","30"],"children":["9022021432003002","9022021432003003","9022021432003004"]},{"stop_id":"9021021432041000","name":"Harmånger station","lat":61.907402,"lon":17.267376,"lines":["30"],"children":["9022021432041001","9022021432041002"]},{"stop_id":"9021021432004000","name":"Harmånger torget","lat":61.928316,"lon":17.21713,"lines":["29","30","35"],"children":["9022021432004001","9022021432004002","9022021432004003"]},{"stop_id":"9021021483220000","name":"Harsnäs","lat":61.332062,"lon":16.462668,"lines":["77"],"children":["9022021483220001","9022021483220002"]},{"stop_id":"9021021432123000","name":"Hassela","lat":62.110203,"lon":16.706544,"lines":["34"],"children":["9022021432123001"]},{"stop_id":"9021021432134000","name":"Hassela Kyrkbyn","lat":62.09949,"lon":16.737495,"lines":["34"],"children":["9022021432134001","9022021432134002"]},{"stop_id":"9021021432121000","name":"Hassela badet","lat":62.099735,"lon":16.731682,"lines":["34"],"children":["9022021432121001","9022021432121002"]},{"stop_id":"9021021484150000","name":"Hasselbacken","lat":61.770435,"lon":17.086144,"lines":["34"],"children":["9022021484150001","9022021484150002"]},{"stop_id":"9021021401007000","name":"Hea","lat":61.055297,"lon":16.699979,"lines":["Kuxa 70K"],"children":["9022021401007001","9022021401007002"]},{"stop_id":"9021021482027000","name":"Hedbacka","lat":61.282049,"lon":16.954167,"lines":["64","68"],"children":["9022021482027001","9022021482027002"]},{"stop_id":"9021021401054000","name":"Heden","lat":60.785904,"lon":16.722741,"lines":["44"],"children":["9022021401054001","9022021401054002"]},{"stop_id":"9021021461026000","name":"Heden","lat":61.849734,"lon":15.995677,"lines":["54"],"children":["9022021461026001","9022021461026002"]},{"stop_id":"9021021482028000","name":"Heden","lat":61.283854,"lon":16.948731,"lines":["64","68"],"children":["9022021482028001","9022021482028002"]},{"stop_id":"9021021483139000","name":"Heden","lat":61.355028,"lon":16.357226,"lines":["4","100","172"],"children":["9022021483139001","9022021483139002","9022021483139003"]},{"stop_id":"9021021483399000","name":"Hedenområdet","lat":61.356404,"lon":16.354391,"lines":["4"],"children":["9022021483399001"]},{"stop_id":"9021021483833000","name":"Hedenvägen","lat":61.351457,"lon":16.345931,"lines":["100","172"],"children":["9022021483833001","9022021483833002"]},{"stop_id":"9021021480527000","name":"Hedesunda","lat":60.393632,"lon":17.006336,"lines":["48","49"],"children":["9022021480527001","9022021480527002"]},{"stop_id":"9021021480529000","name":"Hedesunda kyrka","lat":60.377832,"lon":17.0185,"lines":["48","49"],"children":["9022021480529001","9022021480529002"]},{"stop_id":"9021021480526000","name":"Hedesunda rondellen","lat":60.397648,"lon":17.004017,"lines":["48","49"],"children":["9022021480526001","9022021480526002"]},{"stop_id":"9021021481056000","name":"Hedgrind","lat":60.599221,"lon":16.772023,"lines":["2","47"],"children":["9022021481056001","9022021481056002"]},{"stop_id":"9021021483140000","name":"Hedhamre","lat":61.352648,"lon":16.38378,"lines":["1"],"children":["9022021483140001","9022021483140002"]},{"stop_id":"9021021401008000","name":"Hedsjön","lat":60.990779,"lon":16.691422,"lines":["Kuxa 70K"],"children":["9022021401008001","9022021401008002"]},{"stop_id":"9021021461035000","name":"Hedsta","lat":61.896391,"lon":15.904764,"lines":["54"],"children":["9022021461035001","9022021461035002"]},{"stop_id":"9021021480189000","name":"Hedströms","lat":60.918313,"lon":17.075444,"lines":["25"],"children":["9022021480189001","9022021480189002"]},{"stop_id":"9021021480283000","name":"Hedvigslund","lat":60.664281,"lon":17.123087,"lines":["4"],"children":["9022021480283001","9022021480283002","9022021480283030"]},{"stop_id":"9021021481335000","name":"Hedängskolan","lat":60.589276,"lon":16.528997,"lines":["45"],"children":["9022021481335001"]},{"stop_id":"9021021481057000","name":"Hedåsbadet","lat":60.581854,"lon":16.761999,"lines":["47"],"children":["9022021481057001","9022021481057002"]},{"stop_id":"9021021481058000","name":"Hedåsen","lat":60.411652,"lon":16.710307,"lines":["47"],"children":["9022021481058001","9022021481058002"]},{"stop_id":"9021021481294000","name":"Hedåskiosken","lat":60.57417,"lon":16.758362,"lines":["47"],"children":["9022021481294001","9022021481294002"]},{"stop_id":"9021021481165000","name":"Hedåsstrand","lat":60.585316,"lon":16.763543,"lines":["47"],"children":["9022021481165001","9022021481165002"]},{"stop_id":"9021021481059000","name":"Hedåsvägen","lat":60.600208,"lon":16.775776,"lines":["2"],"children":["9022021481059001"]},{"stop_id":"9021021483141000","name":"Hedåsvägen","lat":61.344267,"lon":16.346331,"lines":["76"],"children":["9022021483141002","9022021483141003"]},{"stop_id":"9021021484296000","name":"Helenedal","lat":61.724743,"lon":17.140961,"lines":["4"],"children":["9022021484296001","9022021484296002"]},{"stop_id":"9021021484297000","name":"Helenedalskiosken","lat":61.726239,"lon":17.12364,"lines":["20"],"children":["9022021484297002"]},{"stop_id":"9021021480614000","name":"Hemlingby köpcentrum","lat":60.646075,"lon":17.148651,"lines":["4","14"],"children":["9022021480614001","9022021480614002"]},{"stop_id":"9021021482362000","name":"Hemmansvägen","lat":61.323792,"lon":17.060736,"lines":["2","62","65","67"],"children":["9022021482362002"]},{"stop_id":"9021021480193000","name":"Hemsta","lat":60.659475,"lon":17.163017,"lines":["3","95","99"],"children":["9022021480193001","9022021480193002"]},{"stop_id":"9021021461041000","name":"Hennan","lat":62.023771,"lon":15.905195,"lines":["54"],"children":["9022021461041001","9022021461041002"]},{"stop_id":"9021021461203000","name":"Hennans camping","lat":62.017283,"lon":15.906758,"lines":["54"],"children":["9022021461203001","9022021461203002"]},{"stop_id":"9021021461205000","name":"Herrgården","lat":61.792746,"lon":16.214116,"lines":["58"],"children":["9022021461205001","9022021461205002"]},{"stop_id":"9021021481060000","name":"Herrgården","lat":60.606647,"lon":16.629215,"lines":["42","46","141"],"children":["9022021481060001","9022021481060002"]},{"stop_id":"9021021580046000","name":"Herrgården Övertänger","lat":60.855548,"lon":15.751103,"lines":["39"],"children":["9022021580046001","9022021580046002"]},{"stop_id":"9021021401055000","name":"Herrgårdsbacken","lat":60.962737,"lon":16.455709,"lines":["Kuxa 71"],"children":["9022021401055001"]},{"stop_id":"9021021480485000","name":"Herrgårdshagen","lat":60.670748,"lon":17.185939,"lines":["1"],"children":["9022021480485001","9022021480485002"]},{"stop_id":"9021021483222000","name":"Herte","lat":61.26502,"lon":16.405468,"lines":["75"],"children":["9022021483222001","9022021483222002"]},{"stop_id":"9021021483273000","name":"Herte såg","lat":61.260485,"lon":16.416283,"lines":["75"],"children":["9022021483273001","9022021483273002"]},{"stop_id":"9021021480194000","name":"Hille","lat":60.730568,"lon":17.183831,"lines":["25"],"children":["9022021480194001","9022021480194002"]},{"stop_id":"9021021480197000","name":"Hillevallsvägen","lat":60.730729,"lon":17.174307,"lines":["3"],"children":["9022021480197001","9022021480197002"]},{"stop_id":"9021021481061000","name":"Hillsta","lat":60.607607,"lon":16.642312,"lines":["42","46"],"children":["9022021481061001","9022021481061002"]},{"stop_id":"9021021484213000","name":"Hillsta","lat":61.73918,"lon":16.885357,"lines":["21"],"children":["9022021484213002"]},{"stop_id":"9021021481063000","name":"Hirkaho","lat":60.763194,"lon":16.459193,"lines":["43"],"children":["9022021481063001","9022021481063002"]},